[
  {
    "id": "PRIMO-001",
    "name": "Ontario Distribution Hub",
    "brand": "Primo",
    "facilityType": "DC",
    "status": "Flow",
    "address": "5772 E Jurupa St, Ontario, CA 91761",
    "city": "Ontario",
    "state": "CA",
    "lat": 34.0278,
    "lon": -117.5839,
    "counts": {
      "trucks": 45,
      "trailers": 120,
      "guardShacks": 2,
      "gates": 6,
      "trailerYards": 3,
      "dropDocks": 18,
      "inboundLanes": 8,
      "outboundLanes": 10
    },
    "notes": "Primary West Coast distribution hub",
    "updatedAt": "2025-12-21T00:00:00.000Z"
  },
  {
    "id": "PRIMO-002",
    "name": "Hope BC Plant",
    "brand": "Primo",
    "facilityType": "Plant",
    "status": "Flow",
    "address": "66700 Othello Rd, Hope, BC V0X 1L1, Canada",
    "city": "Hope",
    "state": "BC",
    "lat": 49.3810,
    "lon": -121.4419,
    "counts": {
      "trucks": 22,
      "trailers": 65,
      "guardShacks": 1,
      "gates": 3,
      "trailerYards": 2,
      "dropDocks": 12,
      "inboundLanes": 4,
      "outboundLanes": 6
    },
    "notes": "Canadian bottling plant - pristine mountain spring source",
    "updatedAt": "2025-12-21T00:00:00.000Z"
  },
  {
    "id": "PRIMO-003",
    "name": "Breinigsville Nestle DC",
    "brand": "Poland Spring",
    "facilityType": "DC",
    "status": "Flow",
    "address": "405 Nestle Way, Breinigsville, PA 18031",
    "city": "Breinigsville",
    "state": "PA",
    "lat": 40.5435,
    "lon": -75.6296,
    "counts": {
      "trucks": 58,
      "trailers": 145,
      "guardShacks": 3,
      "gates": 8,
      "trailerYards": 4,
      "dropDocks": 24,
      "inboundLanes": 12,
      "outboundLanes": 14
    },
    "notes": "Northeast regional mega-hub - Poland Spring HQ",
    "updatedAt": "2025-12-21T00:00:00.000Z"
  },
  {
    "id": "PRIMO-004",
    "name": "Cabazon Plant",
    "brand": "Arrowhead",
    "facilityType": "Plant",
    "status": "Flow",
    "address": "14020 Elm St, Cabazon, CA 92230",
    "city": "Cabazon",
    "state": "CA",
    "lat": 33.9175,
    "lon": -116.7872,
    "counts": {
      "trucks": 35,
      "trailers": 95,
      "guardShacks": 2,
      "gates": 4,
      "trailerYards": 3,
      "dropDocks": 16,
      "inboundLanes": 6,
      "outboundLanes": 8
    },
    "notes": "Arrowhead Mountain Spring Water bottling facility",
    "updatedAt": "2025-12-21T00:00:00.000Z"
  },
  {
    "id": "PRIMO-005",
    "name": "Hawkins Ozarka Plant",
    "brand": "Ozarka",
    "facilityType": "Plant",
    "status": "Flow",
    "address": "3265 FM2869, Hawkins, TX 75765",
    "city": "Hawkins",
    "state": "TX",
    "lat": 32.5885,
    "lon": -95.2040,
    "counts": {
      "trucks": 28,
      "trailers": 72,
      "guardShacks": 1,
      "gates": 3,
      "trailerYards": 2,
      "dropDocks": 10,
      "inboundLanes": 4,
      "outboundLanes": 6
    },
    "notes": "Texas natural spring water source - Ozarka brand",
    "updatedAt": "2025-12-21T00:00:00.000Z"
  },
  {
    "id": "PRIMO-006",
    "name": "Hollis Poland Spring",
    "brand": "Poland Spring",
    "facilityType": "Plant",
    "status": "Flow",
    "address": "400 Killick Pond Rd, Hollis, ME 04042",
    "city": "Hollis",
    "state": "ME",
    "lat": 43.6598,
    "lon": -70.6031,
    "counts": {
      "trucks": 42,
      "trailers": 110,
      "guardShacks": 2,
      "gates": 5,
      "trailerYards": 3,
      "dropDocks": 14,
      "inboundLanes": 6,
      "outboundLanes": 8
    },
    "notes": "Historic Poland Spring source - flagship Maine facility",
    "updatedAt": "2025-12-21T00:00:00.000Z"
  },
  {
    "id": "PRIMO-007",
    "name": "Stanwood Ice Mountain",
    "brand": "Ice Mountain",
    "facilityType": "Plant",
    "status": "Flow",
    "address": "19275 8 Mile Rd, Stanwood, MI 49346",
    "city": "Stanwood",
    "state": "MI",
    "lat": 43.5928,
    "lon": -85.4194,
    "counts": {
      "trucks": 32,
      "trailers": 85,
      "guardShacks": 2,
      "gates": 4,
      "trailerYards": 2,
      "dropDocks": 12,
      "inboundLanes": 5,
      "outboundLanes": 7
    },
    "notes": "Ice Mountain brand - Great Lakes region spring source",
    "updatedAt": "2025-12-21T00:00:00.000Z"
  },
  {
    "id": "PRIMO-008",
    "name": "Raynham DC",
    "brand": "Poland Spring",
    "facilityType": "DC",
    "status": "Flow",
    "address": "375 Paramount Dr, Raynham, MA 02767",
    "city": "Raynham",
    "state": "MA",
    "lat": 41.9298,
    "lon": -71.0437,
    "counts": {
      "trucks": 48,
      "trailers": 125,
      "guardShacks": 2,
      "gates": 6,
      "trailerYards": 3,
      "dropDocks": 20,
      "inboundLanes": 8,
      "outboundLanes": 10
    },
    "notes": "New England distribution center - Poland Spring primary",
    "updatedAt": "2025-12-21T00:00:00.000Z"
  },
  {
    "id": "PRIMO-009",
    "name": "Pasadena TX Terminal",
    "brand": "Ozarka",
    "facilityType": "Terminal",
    "status": "Activating",
    "address": "2818 Pasadena Fwy, Pasadena, TX 77506",
    "city": "Pasadena",
    "state": "TX",
    "lat": 29.6911,
    "lon": -95.2091,
    "counts": {
      "trucks": 52,
      "trailers": 135,
      "guardShacks": 3,
      "gates": 7,
      "trailerYards": 4,
      "dropDocks": 22,
      "inboundLanes": 10,
      "outboundLanes": 12
    },
    "notes": "Gulf Coast mega-terminal - multi-brand distribution",
    "updatedAt": "2025-12-21T00:00:00.000Z"
  },
  {
    "id": "PRIMO-010",
    "name": "Zephyrhills Plant",
    "brand": "Zephyrhills",
    "facilityType": "Plant",
    "status": "Flow",
    "address": "4330 20th St, Zephyrhills, FL 33542",
    "city": "Zephyrhills",
    "state": "FL",
    "lat": 28.2336,
    "lon": -82.1812,
    "counts": {
      "trucks": 38,
      "trailers": 98,
      "guardShacks": 2,
      "gates": 5,
      "trailerYards": 3,
      "dropDocks": 14,
      "inboundLanes": 6,
      "outboundLanes": 8
    },
    "notes": "Zephyrhills brand hometown - Florida spring source",
    "updatedAt": "2025-12-21T00:00:00.000Z"
  },
  {
    "id": "PRIMO-011",
    "name": "Dallas Mountain Creek",
    "brand": "Ozarka",
    "facilityType": "DC",
    "status": "Flow",
    "address": "4718 Mountain Creek Pkwy, Dallas, TX 75236",
    "city": "Dallas",
    "state": "TX",
    "lat": 32.6998,
    "lon": -96.8986,
    "counts": {
      "trucks": 55,
      "trailers": 142,
      "guardShacks": 3,
      "gates": 8,
      "trailerYards": 4,
      "dropDocks": 26,
      "inboundLanes": 10,
      "outboundLanes": 12
    },
    "notes": "DFW Metroplex hub - high-volume multi-brand",
    "updatedAt": "2025-12-21T00:00:00.000Z"
  },
  {
    "id": "PRIMO-012",
    "name": "Kingfield Poland Spring",
    "brand": "Poland Spring",
    "facilityType": "Plant",
    "status": "Flow",
    "address": "120 Poland Spring Dr, Kingfield, ME 04947",
    "city": "Kingfield",
    "state": "ME",
    "lat": 44.9584,
    "lon": -70.1531,
    "counts": {
      "trucks": 25,
      "trailers": 68,
      "guardShacks": 1,
      "gates": 3,
      "trailerYards": 2,
      "dropDocks": 8,
      "inboundLanes": 4,
      "outboundLanes": 5
    },
    "notes": "Premium Poland Spring source - mountain facility",
    "updatedAt": "2025-12-21T00:00:00.000Z"
  },
  {
    "id": "PRIMO-013",
    "name": "Denver Regional Hub",
    "brand": "Primo",
    "facilityType": "DC",
    "status": "Flow",
    "address": "11700 E 47th Ave, Denver, CO 80239",
    "city": "Denver",
    "state": "CO",
    "lat": 39.7761,
    "lon": -104.8386,
    "counts": {
      "trucks": 42,
      "trailers": 108,
      "guardShacks": 2,
      "gates": 6,
      "trailerYards": 3,
      "dropDocks": 16,
      "inboundLanes": 7,
      "outboundLanes": 9
    },
    "notes": "Rocky Mountain regional distribution hub",
    "updatedAt": "2025-12-21T00:00:00.000Z"
  },
  {
    "id": "PRIMO-014",
    "name": "Greenwood IN Hub",
    "brand": "Ice Mountain",
    "facilityType": "CrossDock",
    "status": "Flow",
    "address": "1055 N Graham Rd, Greenwood, IN 46143",
    "city": "Greenwood",
    "state": "IN",
    "lat": 39.6137,
    "lon": -86.1067,
    "counts": {
      "trucks": 35,
      "trailers": 88,
      "guardShacks": 2,
      "gates": 5,
      "trailerYards": 2,
      "dropDocks": 32,
      "inboundLanes": 8,
      "outboundLanes": 8
    },
    "notes": "Midwest cross-dock - high-velocity transload facility",
    "updatedAt": "2025-12-21T00:00:00.000Z"
  },
  {
    "id": "PRIMO-015",
    "name": "McBee SC Plant",
    "brand": "Deer Park",
    "facilityType": "Plant",
    "status": "Activating",
    "address": "100 Nestle Way, McBee, SC 29101",
    "city": "McBee",
    "state": "SC",
    "lat": 34.4690,
    "lon": -80.2560,
    "counts": {
      "trucks": 30,
      "trailers": 78,
      "guardShacks": 2,
      "gates": 4,
      "trailerYards": 2,
      "dropDocks": 12,
      "inboundLanes": 5,
      "outboundLanes": 6
    },
    "notes": "Southeast region plant - Deer Park brand production",
    "updatedAt": "2025-12-21T00:00:00.000Z"
  },
  {
    "id": "PRIMO-016",
    "name": "High Springs Zephyrhills",
    "brand": "Zephyrhills",
    "facilityType": "Plant",
    "status": "Flow",
    "address": "7100 NE County Rd 340, High Springs, FL 32643",
    "city": "High Springs",
    "state": "FL",
    "lat": 29.8284,
    "lon": -82.5965,
    "counts": {
      "trucks": 28,
      "trailers": 72,
      "guardShacks": 1,
      "gates": 3,
      "trailerYards": 2,
      "dropDocks": 10,
      "inboundLanes": 4,
      "outboundLanes": 6
    },
    "notes": "Natural Florida springs - premium Zephyrhills source",
    "updatedAt": "2025-12-21T00:00:00.000Z"
  }
]
