[
  {
    "id": "F0001",
    "name": "Columbia DC",
    "brand": "Arrowhead",
    "facilityType": "DC",
    "status": "Flow",
    "address": "6712 Industrial Blvd",
    "city": "Columbia",
    "state": "SC",
    "lat": 34.23376431649735,
    "lon": -80.86686426970878,
    "counts": {
      "trucks": 66,
      "trailers": 80,
      "guardShacks": 4,
      "gates": 4,
      "trailerYards": 4,
      "dropDocks": 4,
      "inboundLanes": 8,
      "outboundLanes": 10
    },
    "updatedAt": "2025-12-05T03:54:13.544Z"
  },
  {
    "id": "F0002",
    "name": "Madison CrossDock",
    "brand": "Arrowhead",
    "facilityType": "CrossDock",
    "status": "Flow",
    "address": "5038 Industrial Blvd",
    "city": "Madison",
    "state": "WI",
    "lat": 43.16896560886873,
    "lon": -89.43109058353797,
    "counts": {
      "trucks": 14,
      "trailers": 10,
      "guardShacks": 4,
      "gates": 8,
      "trailerYards": 1,
      "dropDocks": 12,
      "inboundLanes": 4,
      "outboundLanes": 4
    },
    "updatedAt": "2025-12-12T03:54:13.545Z"
  },
  {
    "id": "F0003",
    "name": "Sacramento DC",
    "brand": "Crystal Springs",
    "facilityType": "DC",
    "status": "Chaos",
    "address": "9164 Industrial Blvd",
    "city": "Sacramento",
    "state": "CA",
    "lat": 38.79267211314484,
    "lon": -121.49615396689792,
    "counts": {
      "trucks": 41,
      "trailers": 51,
      "guardShacks": 1,
      "gates": 5,
      "trailerYards": 5,
      "dropDocks": 14,
      "inboundLanes": 11,
      "outboundLanes": 6
    },
    "notes": "System integration pending",
    "updatedAt": "2025-11-29T03:54:13.545Z"
  },
  {
    "id": "F0004",
    "name": "South Bend DC",
    "brand": "Pure Life",
    "facilityType": "DC",
    "status": "Flow",
    "address": "4911 Industrial Blvd",
    "city": "South Bend",
    "state": "IN",
    "lat": 41.68758040172588,
    "lon": -86.05296111442183,
    "counts": {
      "trucks": 20,
      "trailers": 125,
      "guardShacks": 4,
      "gates": 3,
      "trailerYards": 4,
      "dropDocks": 8,
      "inboundLanes": 10,
      "outboundLanes": 3
    },
    "updatedAt": "2025-11-19T03:54:13.545Z"
  },
  {
    "id": "F0005",
    "name": "Mobile Plant",
    "brand": "Ozarka",
    "facilityType": "Plant",
    "status": "Flow",
    "address": "3075 Industrial Blvd",
    "city": "Mobile",
    "state": "AL",
    "lat": 30.488142307135085,
    "lon": -87.98168825923132,
    "counts": {
      "trucks": 14,
      "trailers": 58,
      "guardShacks": 1,
      "gates": 2,
      "trailerYards": 1,
      "dropDocks": 7,
      "inboundLanes": 3,
      "outboundLanes": 4
    },
    "updatedAt": "2025-12-19T03:54:13.545Z"
  },
  {
    "id": "F0006",
    "name": "Des Moines Yard",
    "brand": "Arrowhead",
    "facilityType": "Yard",
    "status": "Flow",
    "address": "5262 Industrial Blvd",
    "city": "Des Moines",
    "state": "IA",
    "lat": 41.62728437295023,
    "lon": -93.40013770488895,
    "counts": {
      "trucks": 29,
      "trailers": 36,
      "guardShacks": 4,
      "gates": 5,
      "trailerYards": 3,
      "dropDocks": 7,
      "inboundLanes": 10,
      "outboundLanes": 11
    },
    "updatedAt": "2025-11-19T03:54:13.545Z"
  },
  {
    "id": "F0007",
    "name": "Toledo Yard",
    "brand": "Ice Mountain",
    "facilityType": "Yard",
    "status": "Flow",
    "address": "5662 Industrial Blvd",
    "city": "Toledo",
    "state": "OH",
    "lat": 41.59678939378698,
    "lon": -83.53370891825371,
    "counts": {
      "trucks": 31,
      "trailers": 30,
      "guardShacks": 3,
      "gates": 4,
      "trailerYards": 1,
      "dropDocks": 7,
      "inboundLanes": 6,
      "outboundLanes": 3
    },
    "updatedAt": "2025-11-23T03:54:13.545Z"
  },
  {
    "id": "F0008",
    "name": "Denver Terminal",
    "brand": "Deer Park",
    "facilityType": "Terminal",
    "status": "Flow",
    "address": "6209 Industrial Blvd",
    "city": "Denver",
    "state": "CO",
    "lat": 39.82875281538692,
    "lon": -105.02964891012705,
    "counts": {
      "trucks": 59,
      "trailers": 120,
      "guardShacks": 3,
      "gates": 8,
      "trailerYards": 3,
      "dropDocks": 5,
      "inboundLanes": 7,
      "outboundLanes": 6
    },
    "updatedAt": "2025-11-27T03:54:13.545Z"
  },
  {
    "id": "F0009",
    "name": "Corpus Christi Terminal",
    "brand": "Deer Park",
    "facilityType": "Terminal",
    "status": "Flow",
    "address": "9204 Industrial Blvd",
    "city": "Corpus Christi",
    "state": "TX",
    "lat": 27.58129853748093,
    "lon": -97.58534498173495,
    "counts": {
      "trucks": 31,
      "trailers": 55,
      "guardShacks": 4,
      "gates": 4,
      "trailerYards": 1,
      "dropDocks": 5,
      "inboundLanes": 7,
      "outboundLanes": 3
    },
    "updatedAt": "2025-12-16T03:54:13.545Z"
  },
  {
    "id": "F0010",
    "name": "Tucson CrossDock",
    "brand": "Arrowhead",
    "facilityType": "CrossDock",
    "status": "Flow",
    "address": "1171 Industrial Blvd",
    "city": "Tucson",
    "state": "AZ",
    "lat": 32.24273232284844,
    "lon": -110.88381371911977,
    "counts": {
      "trucks": 31,
      "trailers": 10,
      "guardShacks": 4,
      "gates": 3,
      "trailerYards": 1,
      "dropDocks": 4,
      "inboundLanes": 4,
      "outboundLanes": 11
    },
    "updatedAt": "2025-11-21T03:54:13.545Z"
  },
  {
    "id": "F0011",
    "name": "Lubbock Yard",
    "brand": "Ice Mountain",
    "facilityType": "Yard",
    "status": "Activating",
    "address": "8538 Industrial Blvd",
    "city": "Lubbock",
    "state": "TX",
    "lat": 33.570718355573945,
    "lon": -101.85402263191739,
    "counts": {
      "trucks": 32,
      "trailers": 97,
      "guardShacks": 4,
      "gates": 5,
      "trailerYards": 1,
      "dropDocks": 8,
      "inboundLanes": 12,
      "outboundLanes": 11
    },
    "notes": "Onboarding in progress",
    "updatedAt": "2025-12-14T03:54:13.545Z"
  },
  {
    "id": "F0012",
    "name": "Cedar Rapids DC",
    "brand": "Zephyrhills",
    "facilityType": "DC",
    "status": "Flow",
    "address": "3659 Industrial Blvd",
    "city": "Cedar Rapids",
    "state": "IA",
    "lat": 42.03415282275787,
    "lon": -91.57032487341048,
    "counts": {
      "trucks": 44,
      "trailers": 59,
      "guardShacks": 1,
      "gates": 8,
      "trailerYards": 2,
      "dropDocks": 14,
      "inboundLanes": 2,
      "outboundLanes": 2
    },
    "updatedAt": "2025-11-22T03:54:13.545Z"
  },
  {
    "id": "F0013",
    "name": "Laredo Plant",
    "brand": "Sparkletts",
    "facilityType": "Plant",
    "status": "Flow",
    "address": "8747 Industrial Blvd",
    "city": "Laredo",
    "state": "TX",
    "lat": 27.63952733685435,
    "lon": -99.68767891102272,
    "counts": {
      "trucks": 46,
      "trailers": 90,
      "guardShacks": 2,
      "gates": 5,
      "trailerYards": 1,
      "dropDocks": 6,
      "inboundLanes": 2,
      "outboundLanes": 5
    },
    "updatedAt": "2025-11-30T03:54:13.545Z"
  },
  {
    "id": "F0014",
    "name": "Fargo DC",
    "brand": "Crystal Springs",
    "facilityType": "DC",
    "status": "Flow",
    "address": "976 Industrial Blvd",
    "city": "Fargo",
    "state": "ND",
    "lat": 47.07052899528399,
    "lon": -96.86577341917267,
    "counts": {
      "trucks": 74,
      "trailers": 122,
      "guardShacks": 3,
      "gates": 4,
      "trailerYards": 3,
      "dropDocks": 19,
      "inboundLanes": 3,
      "outboundLanes": 4
    },
    "updatedAt": "2025-12-16T03:54:13.545Z"
  },
  {
    "id": "F0015",
    "name": "San Jose Plant",
    "brand": "Primo",
    "facilityType": "Plant",
    "status": "Flow",
    "address": "4649 Industrial Blvd",
    "city": "San Jose",
    "state": "CA",
    "lat": 37.104366948868886,
    "lon": -121.93788880346563,
    "counts": {
      "trucks": 66,
      "trailers": 136,
      "guardShacks": 3,
      "gates": 6,
      "trailerYards": 1,
      "dropDocks": 12,
      "inboundLanes": 3,
      "outboundLanes": 8
    },
    "updatedAt": "2025-11-28T03:54:13.545Z"
  },
  {
    "id": "F0016",
    "name": "Riverside DC",
    "brand": "Primo",
    "facilityType": "DC",
    "status": "Flow",
    "address": "8668 Industrial Blvd",
    "city": "Riverside",
    "state": "CA",
    "lat": 33.79424255394601,
    "lon": -117.54990967630137,
    "counts": {
      "trucks": 69,
      "trailers": 77,
      "guardShacks": 1,
      "gates": 5,
      "trailerYards": 5,
      "dropDocks": 12,
      "inboundLanes": 2,
      "outboundLanes": 11
    },
    "updatedAt": "2025-12-09T03:54:13.545Z"
  },
  {
    "id": "F0017",
    "name": "Syracuse Terminal",
    "brand": "Arrowhead",
    "facilityType": "Terminal",
    "status": "Flow",
    "address": "6126 Industrial Blvd",
    "city": "Syracuse",
    "state": "NY",
    "lat": 42.95902280015982,
    "lon": -76.36846968175831,
    "counts": {
      "trucks": 55,
      "trailers": 56,
      "guardShacks": 3,
      "gates": 3,
      "trailerYards": 2,
      "dropDocks": 9,
      "inboundLanes": 4,
      "outboundLanes": 8
    },
    "updatedAt": "2025-12-11T03:54:13.545Z"
  },
  {
    "id": "F0018",
    "name": "Atlanta CrossDock",
    "brand": "Crystal Springs",
    "facilityType": "CrossDock",
    "status": "Flow",
    "address": "8288 Industrial Blvd",
    "city": "Atlanta",
    "state": "GA",
    "lat": 33.54935411313793,
    "lon": -84.3971405745734,
    "counts": {
      "trucks": 11,
      "trailers": 12,
      "guardShacks": 4,
      "gates": 2,
      "trailerYards": 3,
      "dropDocks": 9,
      "inboundLanes": 8,
      "outboundLanes": 9
    },
    "updatedAt": "2025-11-25T03:54:13.545Z"
  },
  {
    "id": "F0019",
    "name": "Green Bay CrossDock",
    "brand": "Pure Life",
    "facilityType": "CrossDock",
    "status": "Flow",
    "address": "4896 Industrial Blvd",
    "city": "Green Bay",
    "state": "WI",
    "lat": 44.386702427975635,
    "lon": -87.97934689023218,
    "counts": {
      "trucks": 40,
      "trailers": 12,
      "guardShacks": 1,
      "gates": 5,
      "trailerYards": 2,
      "dropDocks": 5,
      "inboundLanes": 4,
      "outboundLanes": 11
    },
    "updatedAt": "2025-12-07T03:54:13.545Z"
  },
  {
    "id": "F0020",
    "name": "Los Angeles Yard",
    "brand": "Poland Spring",
    "facilityType": "Yard",
    "status": "Activating",
    "address": "8147 Industrial Blvd",
    "city": "Los Angeles",
    "state": "CA",
    "lat": 33.929949381811554,
    "lon": -118.19173062254278,
    "counts": {
      "trucks": 21,
      "trailers": 23,
      "guardShacks": 3,
      "gates": 8,
      "trailerYards": 3,
      "dropDocks": 4,
      "inboundLanes": 12,
      "outboundLanes": 6
    },
    "notes": "Onboarding in progress",
    "updatedAt": "2025-12-03T03:54:13.545Z"
  },
  {
    "id": "F0021",
    "name": "Newark DC",
    "brand": "Ozarka",
    "facilityType": "DC",
    "status": "Chaos",
    "address": "6493 Industrial Blvd",
    "city": "Newark",
    "state": "NJ",
    "lat": 40.823272120477036,
    "lon": -74.0185220215322,
    "counts": {
      "trucks": 36,
      "trailers": 53,
      "guardShacks": 2,
      "gates": 2,
      "trailerYards": 4,
      "dropDocks": 4,
      "inboundLanes": 9,
      "outboundLanes": 3
    },
    "notes": "System integration pending",
    "updatedAt": "2025-12-14T03:54:13.545Z"
  },
  {
    "id": "F0022",
    "name": "Charlotte DC",
    "brand": "Pure Life",
    "facilityType": "DC",
    "status": "Flow",
    "address": "1851 Industrial Blvd",
    "city": "Charlotte",
    "state": "NC",
    "lat": 35.18941430554519,
    "lon": -80.66833487770414,
    "counts": {
      "trucks": 21,
      "trailers": 23,
      "guardShacks": 1,
      "gates": 4,
      "trailerYards": 3,
      "dropDocks": 15,
      "inboundLanes": 5,
      "outboundLanes": 7
    },
    "updatedAt": "2025-12-06T03:54:13.545Z"
  },
  {
    "id": "F0023",
    "name": "Rockford Yard",
    "brand": "Pure Life",
    "facilityType": "Yard",
    "status": "Activating",
    "address": "6693 Industrial Blvd",
    "city": "Rockford",
    "state": "IL",
    "lat": 42.13013028657412,
    "lon": -88.90084865854527,
    "counts": {
      "trucks": 42,
      "trailers": 57,
      "guardShacks": 1,
      "gates": 7,
      "trailerYards": 4,
      "dropDocks": 7,
      "inboundLanes": 7,
      "outboundLanes": 10
    },
    "notes": "Onboarding in progress",
    "updatedAt": "2025-11-30T03:54:13.545Z"
  },
  {
    "id": "F0024",
    "name": "Providence Terminal",
    "brand": "Zephyrhills",
    "facilityType": "Terminal",
    "status": "Flow",
    "address": "8091 Industrial Blvd",
    "city": "Providence",
    "state": "RI",
    "lat": 42.005213316272986,
    "lon": -71.59792768167603,
    "counts": {
      "trucks": 43,
      "trailers": 111,
      "guardShacks": 1,
      "gates": 3,
      "trailerYards": 5,
      "dropDocks": 18,
      "inboundLanes": 4,
      "outboundLanes": 11
    },
    "updatedAt": "2025-11-30T03:54:13.545Z"
  },
  {
    "id": "F0025",
    "name": "Fort Wayne Terminal",
    "brand": "Deer Park",
    "facilityType": "Terminal",
    "status": "Flow",
    "address": "5715 Industrial Blvd",
    "city": "Fort Wayne",
    "state": "IN",
    "lat": 41.087656171718336,
    "lon": -85.36749534673251,
    "counts": {
      "trucks": 17,
      "trailers": 64,
      "guardShacks": 4,
      "gates": 3,
      "trailerYards": 2,
      "dropDocks": 17,
      "inboundLanes": 8,
      "outboundLanes": 8
    },
    "updatedAt": "2025-12-02T03:54:13.545Z"
  },
  {
    "id": "F0026",
    "name": "Boise CrossDock",
    "brand": "Poland Spring",
    "facilityType": "CrossDock",
    "status": "Flow",
    "address": "7069 Industrial Blvd",
    "city": "Boise",
    "state": "ID",
    "lat": 43.46798332586979,
    "lon": -116.10903241335934,
    "counts": {
      "trucks": 13,
      "trailers": 62,
      "guardShacks": 4,
      "gates": 2,
      "trailerYards": 2,
      "dropDocks": 11,
      "inboundLanes": 11,
      "outboundLanes": 6
    },
    "updatedAt": "2025-12-18T03:54:13.545Z"
  },
  {
    "id": "F0027",
    "name": "Jackson Yard",
    "brand": "Pure Life",
    "facilityType": "Yard",
    "status": "Flow",
    "address": "362 Industrial Blvd",
    "city": "Jackson",
    "state": "MS",
    "lat": 32.222933253040054,
    "lon": -90.05127850192366,
    "counts": {
      "trucks": 33,
      "trailers": 46,
      "guardShacks": 3,
      "gates": 3,
      "trailerYards": 1,
      "dropDocks": 20,
      "inboundLanes": 6,
      "outboundLanes": 2
    },
    "updatedAt": "2025-11-28T03:54:13.545Z"
  },
  {
    "id": "F0028",
    "name": "Louisville DC",
    "brand": "Sparkletts",
    "facilityType": "DC",
    "status": "Flow",
    "address": "4852 Industrial Blvd",
    "city": "Louisville",
    "state": "KY",
    "lat": 38.206825665691206,
    "lon": -85.75050652315608,
    "counts": {
      "trucks": 54,
      "trailers": 147,
      "guardShacks": 3,
      "gates": 8,
      "trailerYards": 1,
      "dropDocks": 15,
      "inboundLanes": 8,
      "outboundLanes": 9
    },
    "updatedAt": "2025-12-15T03:54:13.545Z"
  },
  {
    "id": "F0029",
    "name": "Fresno Plant",
    "brand": "Primo",
    "facilityType": "Plant",
    "status": "Activating",
    "address": "6056 Industrial Blvd",
    "city": "Fresno",
    "state": "CA",
    "lat": 36.78590713509869,
    "lon": -119.9750429435221,
    "counts": {
      "trucks": 68,
      "trailers": 22,
      "guardShacks": 1,
      "gates": 3,
      "trailerYards": 2,
      "dropDocks": 17,
      "inboundLanes": 2,
      "outboundLanes": 5
    },
    "notes": "Onboarding in progress",
    "updatedAt": "2025-12-17T03:54:13.546Z"
  },
  {
    "id": "F0030",
    "name": "Chattanooga Yard",
    "brand": "Ozarka",
    "facilityType": "Yard",
    "status": "Flow",
    "address": "6352 Industrial Blvd",
    "city": "Chattanooga",
    "state": "TN",
    "lat": 35.166166781251455,
    "lon": -85.31557093777177,
    "counts": {
      "trucks": 10,
      "trailers": 41,
      "guardShacks": 4,
      "gates": 6,
      "trailerYards": 3,
      "dropDocks": 14,
      "inboundLanes": 10,
      "outboundLanes": 6
    },
    "updatedAt": "2025-11-24T03:54:13.546Z"
  },
  {
    "id": "F0031",
    "name": "Dallas Yard",
    "brand": "Crystal Springs",
    "facilityType": "Yard",
    "status": "Activating",
    "address": "8157 Industrial Blvd",
    "city": "Dallas",
    "state": "TX",
    "lat": 32.59791051884189,
    "lon": -96.94441492159555,
    "counts": {
      "trucks": 27,
      "trailers": 41,
      "guardShacks": 4,
      "gates": 4,
      "trailerYards": 4,
      "dropDocks": 14,
      "inboundLanes": 7,
      "outboundLanes": 10
    },
    "notes": "Onboarding in progress",
    "updatedAt": "2025-12-06T03:54:13.546Z"
  },
  {
    "id": "F0032",
    "name": "Harrisburg DC",
    "brand": "Deer Park",
    "facilityType": "DC",
    "status": "Activating",
    "address": "2338 Industrial Blvd",
    "city": "Harrisburg",
    "state": "PA",
    "lat": 40.30801420892331,
    "lon": -76.92715472547535,
    "counts": {
      "trucks": 9,
      "trailers": 120,
      "guardShacks": 4,
      "gates": 3,
      "trailerYards": 4,
      "dropDocks": 14,
      "inboundLanes": 10,
      "outboundLanes": 5
    },
    "notes": "Onboarding in progress",
    "updatedAt": "2025-12-14T03:54:13.546Z"
  },
  {
    "id": "F0033",
    "name": "Raleigh Plant",
    "brand": "Zephyrhills",
    "facilityType": "Plant",
    "status": "Activating",
    "address": "1132 Industrial Blvd",
    "city": "Raleigh",
    "state": "NC",
    "lat": 35.57576559904662,
    "lon": -78.72581440168473,
    "counts": {
      "trucks": 10,
      "trailers": 70,
      "guardShacks": 3,
      "gates": 7,
      "trailerYards": 4,
      "dropDocks": 14,
      "inboundLanes": 7,
      "outboundLanes": 5
    },
    "notes": "Onboarding in progress",
    "updatedAt": "2025-12-14T03:54:13.546Z"
  },
  {
    "id": "F0034",
    "name": "Wichita DC",
    "brand": "Deer Park",
    "facilityType": "DC",
    "status": "Activating",
    "address": "5906 Industrial Blvd",
    "city": "Wichita",
    "state": "KS",
    "lat": 37.78061761056339,
    "lon": -97.32717444667183,
    "counts": {
      "trucks": 56,
      "trailers": 120,
      "guardShacks": 2,
      "gates": 4,
      "trailerYards": 3,
      "dropDocks": 8,
      "inboundLanes": 4,
      "outboundLanes": 4
    },
    "notes": "Onboarding in progress",
    "updatedAt": "2025-12-05T03:54:13.546Z"
  },
  {
    "id": "F0035",
    "name": "Houston Terminal",
    "brand": "Crystal Springs",
    "facilityType": "Terminal",
    "status": "Flow",
    "address": "9761 Industrial Blvd",
    "city": "Houston",
    "state": "TX",
    "lat": 29.733918979073675,
    "lon": -95.34872644492367,
    "counts": {
      "trucks": 8,
      "trailers": 38,
      "guardShacks": 1,
      "gates": 5,
      "trailerYards": 1,
      "dropDocks": 9,
      "inboundLanes": 11,
      "outboundLanes": 2
    },
    "updatedAt": "2025-12-02T03:54:13.546Z"
  },
  {
    "id": "F0036",
    "name": "Norfolk Plant",
    "brand": "Arrowhead",
    "facilityType": "Plant",
    "status": "Flow",
    "address": "7106 Industrial Blvd",
    "city": "Norfolk",
    "state": "VA",
    "lat": 36.79604909411575,
    "lon": -76.43845771925945,
    "counts": {
      "trucks": 24,
      "trailers": 142,
      "guardShacks": 4,
      "gates": 3,
      "trailerYards": 3,
      "dropDocks": 5,
      "inboundLanes": 12,
      "outboundLanes": 8
    },
    "updatedAt": "2025-12-05T03:54:13.546Z"
  },
  {
    "id": "F0037",
    "name": "Akron Yard",
    "brand": "Crystal Springs",
    "facilityType": "Yard",
    "status": "Flow",
    "address": "6649 Industrial Blvd",
    "city": "Akron",
    "state": "OH",
    "lat": 40.934855125098665,
    "lon": -81.32399007990443,
    "counts": {
      "trucks": 45,
      "trailers": 31,
      "guardShacks": 4,
      "gates": 4,
      "trailerYards": 5,
      "dropDocks": 10,
      "inboundLanes": 2,
      "outboundLanes": 10
    },
    "updatedAt": "2025-12-16T03:54:13.546Z"
  },
  {
    "id": "F0038",
    "name": "Detroit Plant",
    "brand": "Sparkletts",
    "facilityType": "Plant",
    "status": "Activating",
    "address": "8257 Industrial Blvd",
    "city": "Detroit",
    "state": "MI",
    "lat": 42.101067823081365,
    "lon": -82.85440588199175,
    "counts": {
      "trucks": 34,
      "trailers": 166,
      "guardShacks": 2,
      "gates": 6,
      "trailerYards": 1,
      "dropDocks": 18,
      "inboundLanes": 4,
      "outboundLanes": 11
    },
    "notes": "Onboarding in progress",
    "updatedAt": "2025-11-28T03:54:13.546Z"
  },
  {
    "id": "F0039",
    "name": "Little Rock Yard",
    "brand": "Ice Mountain",
    "facilityType": "Yard",
    "status": "Flow",
    "address": "6345 Industrial Blvd",
    "city": "Little Rock",
    "state": "AR",
    "lat": 34.62942321048084,
    "lon": -92.37468417109805,
    "counts": {
      "trucks": 14,
      "trailers": 80,
      "guardShacks": 3,
      "gates": 6,
      "trailerYards": 1,
      "dropDocks": 16,
      "inboundLanes": 8,
      "outboundLanes": 8
    },
    "updatedAt": "2025-11-21T03:54:13.546Z"
  },
  {
    "id": "F0040",
    "name": "Springfield Yard",
    "brand": "Ozarka",
    "facilityType": "Yard",
    "status": "Flow",
    "address": "1096 Industrial Blvd",
    "city": "Springfield",
    "state": "MO",
    "lat": 37.17084866829842,
    "lon": -93.38205341654286,
    "counts": {
      "trucks": 40,
      "trailers": 29,
      "guardShacks": 1,
      "gates": 4,
      "trailerYards": 2,
      "dropDocks": 18,
      "inboundLanes": 7,
      "outboundLanes": 6
    },
    "updatedAt": "2025-11-28T03:54:13.546Z"
  },
  {
    "id": "F0041",
    "name": "Tampa CrossDock",
    "brand": "Ozarka",
    "facilityType": "CrossDock",
    "status": "Flow",
    "address": "9747 Industrial Blvd",
    "city": "Tampa",
    "state": "FL",
    "lat": 27.81367563416085,
    "lon": -82.26517809641703,
    "counts": {
      "trucks": 31,
      "trailers": 53,
      "guardShacks": 1,
      "gates": 7,
      "trailerYards": 1,
      "dropDocks": 17,
      "inboundLanes": 3,
      "outboundLanes": 5
    },
    "updatedAt": "2025-11-30T03:54:13.546Z"
  },
  {
    "id": "F0042",
    "name": "Orlando Plant",
    "brand": "Deer Park",
    "facilityType": "Plant",
    "status": "Activating",
    "address": "1862 Industrial Blvd",
    "city": "Orlando",
    "state": "FL",
    "lat": 28.35546796978253,
    "lon": -81.58913182090524,
    "counts": {
      "trucks": 58,
      "trailers": 126,
      "guardShacks": 3,
      "gates": 4,
      "trailerYards": 4,
      "dropDocks": 6,
      "inboundLanes": 2,
      "outboundLanes": 9
    },
    "notes": "Onboarding in progress",
    "updatedAt": "2025-11-24T03:54:13.546Z"
  },
  {
    "id": "F0043",
    "name": "Miami Yard",
    "brand": "Arrowhead",
    "facilityType": "Yard",
    "status": "Flow",
    "address": "143 Industrial Blvd",
    "city": "Miami",
    "state": "FL",
    "lat": 25.881290710080048,
    "lon": -80.35298127976552,
    "counts": {
      "trucks": 13,
      "trailers": 82,
      "guardShacks": 4,
      "gates": 4,
      "trailerYards": 4,
      "dropDocks": 14,
      "inboundLanes": 3,
      "outboundLanes": 7
    },
    "updatedAt": "2025-11-20T03:54:13.546Z"
  },
  {
    "id": "F0044",
    "name": "Richmond Yard",
    "brand": "Sparkletts",
    "facilityType": "Yard",
    "status": "Flow",
    "address": "3666 Industrial Blvd",
    "city": "Richmond",
    "state": "VA",
    "lat": 37.733592860092884,
    "lon": -77.44196546062116,
    "counts": {
      "trucks": 34,
      "trailers": 86,
      "guardShacks": 3,
      "gates": 7,
      "trailerYards": 3,
      "dropDocks": 7,
      "inboundLanes": 4,
      "outboundLanes": 5
    },
    "updatedAt": "2025-12-18T03:54:13.546Z"
  },
  {
    "id": "F0045",
    "name": "Salt Lake City CrossDock",
    "brand": "Pure Life",
    "facilityType": "CrossDock",
    "status": "Flow",
    "address": "1923 Industrial Blvd",
    "city": "Salt Lake City",
    "state": "UT",
    "lat": 40.804961318217906,
    "lon": -111.71081647993189,
    "counts": {
      "trucks": 12,
      "trailers": 63,
      "guardShacks": 1,
      "gates": 6,
      "trailerYards": 2,
      "dropDocks": 20,
      "inboundLanes": 6,
      "outboundLanes": 2
    },
    "updatedAt": "2025-12-18T03:54:13.546Z"
  },
  {
    "id": "F0046",
    "name": "Shreveport Terminal",
    "brand": "Arrowhead",
    "facilityType": "Terminal",
    "status": "Activating",
    "address": "7976 Industrial Blvd",
    "city": "Shreveport",
    "state": "LA",
    "lat": 32.65952864186143,
    "lon": -93.74038805422043,
    "counts": {
      "trucks": 26,
      "trailers": 61,
      "guardShacks": 1,
      "gates": 5,
      "trailerYards": 5,
      "dropDocks": 10,
      "inboundLanes": 6,
      "outboundLanes": 2
    },
    "notes": "Onboarding in progress",
    "updatedAt": "2025-11-19T03:54:13.546Z"
  },
  {
    "id": "F0047",
    "name": "Hartford Plant",
    "brand": "Pure Life",
    "facilityType": "Plant",
    "status": "Flow",
    "address": "378 Industrial Blvd",
    "city": "Hartford",
    "state": "CT",
    "lat": 41.60707606770016,
    "lon": -72.76396480894469,
    "counts": {
      "trucks": 62,
      "trailers": 126,
      "guardShacks": 3,
      "gates": 6,
      "trailerYards": 1,
      "dropDocks": 14,
      "inboundLanes": 6,
      "outboundLanes": 2
    },
    "updatedAt": "2025-12-17T03:54:13.546Z"
  },
  {
    "id": "F0048",
    "name": "Las Vegas Yard",
    "brand": "Sparkletts",
    "facilityType": "Yard",
    "status": "Activating",
    "address": "3251 Industrial Blvd",
    "city": "Las Vegas",
    "state": "NV",
    "lat": 36.15858328477715,
    "lon": -115.16942947732794,
    "counts": {
      "trucks": 25,
      "trailers": 96,
      "guardShacks": 4,
      "gates": 2,
      "trailerYards": 2,
      "dropDocks": 4,
      "inboundLanes": 2,
      "outboundLanes": 4
    },
    "notes": "Onboarding in progress",
    "updatedAt": "2025-12-11T03:54:13.546Z"
  },
  {
    "id": "F0049",
    "name": "Knoxville DC",
    "brand": "Ice Mountain",
    "facilityType": "DC",
    "status": "Chaos",
    "address": "7449 Industrial Blvd",
    "city": "Knoxville",
    "state": "TN",
    "lat": 35.78656188529624,
    "lon": -83.88960130079919,
    "counts": {
      "trucks": 74,
      "trailers": 27,
      "guardShacks": 2,
      "gates": 6,
      "trailerYards": 1,
      "dropDocks": 11,
      "inboundLanes": 9,
      "outboundLanes": 4
    },
    "notes": "System integration pending",
    "updatedAt": "2025-12-01T03:54:13.546Z"
  },
  {
    "id": "F0050",
    "name": "Tulsa Terminal",
    "brand": "Arrowhead",
    "facilityType": "Terminal",
    "status": "Flow",
    "address": "4981 Industrial Blvd",
    "city": "Tulsa",
    "state": "OK",
    "lat": 36.123090472647625,
    "lon": -96.18502539386789,
    "counts": {
      "trucks": 43,
      "trailers": 68,
      "guardShacks": 4,
      "gates": 8,
      "trailerYards": 2,
      "dropDocks": 20,
      "inboundLanes": 4,
      "outboundLanes": 7
    },
    "updatedAt": "2025-12-18T03:54:13.546Z"
  },
  {
    "id": "F0051",
    "name": "San Diego Plant",
    "brand": "Zephyrhills",
    "facilityType": "Plant",
    "status": "Flow",
    "address": "1324 Industrial Blvd",
    "city": "San Diego",
    "state": "CA",
    "lat": 32.484872936003995,
    "lon": -117.32808931633528,
    "counts": {
      "trucks": 26,
      "trailers": 104,
      "guardShacks": 3,
      "gates": 2,
      "trailerYards": 4,
      "dropDocks": 17,
      "inboundLanes": 4,
      "outboundLanes": 9
    },
    "updatedAt": "2025-11-29T03:54:13.546Z"
  },
  {
    "id": "F0052",
    "name": "San Antonio Yard",
    "brand": "Deer Park",
    "facilityType": "Yard",
    "status": "Flow",
    "address": "6048 Industrial Blvd",
    "city": "San Antonio",
    "state": "TX",
    "lat": 29.313721652631376,
    "lon": -98.57604954977636,
    "counts": {
      "trucks": 7,
      "trailers": 38,
      "guardShacks": 3,
      "gates": 2,
      "trailerYards": 3,
      "dropDocks": 15,
      "inboundLanes": 8,
      "outboundLanes": 10
    },
    "updatedAt": "2025-12-10T03:54:13.546Z"
  },
  {
    "id": "F0053",
    "name": "Charleston Yard",
    "brand": "Crystal Springs",
    "facilityType": "Yard",
    "status": "Flow",
    "address": "7187 Industrial Blvd",
    "city": "Charleston",
    "state": "SC",
    "lat": 32.87611262320388,
    "lon": -79.91081575915744,
    "counts": {
      "trucks": 28,
      "trailers": 24,
      "guardShacks": 3,
      "gates": 6,
      "trailerYards": 5,
      "dropDocks": 12,
      "inboundLanes": 10,
      "outboundLanes": 8
    },
    "updatedAt": "2025-12-02T03:54:13.546Z"
  },
  {
    "id": "F0054",
    "name": "New Orleans DC",
    "brand": "Ice Mountain",
    "facilityType": "DC",
    "status": "Flow",
    "address": "6709 Industrial Blvd",
    "city": "New Orleans",
    "state": "LA",
    "lat": 29.77710343891727,
    "lon": -90.02304308536758,
    "counts": {
      "trucks": 21,
      "trailers": 141,
      "guardShacks": 2,
      "gates": 3,
      "trailerYards": 1,
      "dropDocks": 4,
      "inboundLanes": 2,
      "outboundLanes": 2
    },
    "updatedAt": "2025-11-22T03:54:13.546Z"
  },
  {
    "id": "F0055",
    "name": "Columbus Plant",
    "brand": "Sparkletts",
    "facilityType": "Plant",
    "status": "Flow",
    "address": "1281 Industrial Blvd",
    "city": "Columbus",
    "state": "OH",
    "lat": 39.81823609163829,
    "lon": -82.86473531812332,
    "counts": {
      "trucks": 38,
      "trailers": 142,
      "guardShacks": 2,
      "gates": 6,
      "trailerYards": 2,
      "dropDocks": 8,
      "inboundLanes": 8,
      "outboundLanes": 12
    },
    "updatedAt": "2025-12-05T03:54:13.546Z"
  },
  {
    "id": "F0056",
    "name": "Philadelphia Terminal",
    "brand": "Sparkletts",
    "facilityType": "Terminal",
    "status": "Activating",
    "address": "6359 Industrial Blvd",
    "city": "Philadelphia",
    "state": "PA",
    "lat": 40.17651684625245,
    "lon": -74.99248427006896,
    "counts": {
      "trucks": 42,
      "trailers": 34,
      "guardShacks": 2,
      "gates": 5,
      "trailerYards": 5,
      "dropDocks": 19,
      "inboundLanes": 12,
      "outboundLanes": 2
    },
    "notes": "Onboarding in progress",
    "updatedAt": "2025-11-20T03:54:13.546Z"
  },
  {
    "id": "F0057",
    "name": "Fort Worth Yard",
    "brand": "Sparkletts",
    "facilityType": "Yard",
    "status": "Flow",
    "address": "2403 Industrial Blvd",
    "city": "Fort Worth",
    "state": "TX",
    "lat": 32.807221790772715,
    "lon": -97.13501720578215,
    "counts": {
      "trucks": 8,
      "trailers": 37,
      "guardShacks": 4,
      "gates": 2,
      "trailerYards": 3,
      "dropDocks": 11,
      "inboundLanes": 6,
      "outboundLanes": 6
    },
    "updatedAt": "2025-12-13T03:54:13.546Z"
  },
  {
    "id": "F0058",
    "name": "Omaha DC",
    "brand": "Deer Park",
    "facilityType": "DC",
    "status": "Flow",
    "address": "3883 Industrial Blvd",
    "city": "Omaha",
    "state": "NE",
    "lat": 41.348292514303054,
    "lon": -95.90436177792633,
    "counts": {
      "trucks": 72,
      "trailers": 29,
      "guardShacks": 4,
      "gates": 4,
      "trailerYards": 2,
      "dropDocks": 9,
      "inboundLanes": 4,
      "outboundLanes": 6
    },
    "updatedAt": "2025-11-25T03:54:13.546Z"
  },
  {
    "id": "F0059",
    "name": "Boston Plant",
    "brand": "Ice Mountain",
    "facilityType": "Plant",
    "status": "Activating",
    "address": "865 Industrial Blvd",
    "city": "Boston",
    "state": "MA",
    "lat": 42.563087931609644,
    "lon": -70.97619013103747,
    "counts": {
      "trucks": 66,
      "trailers": 170,
      "guardShacks": 3,
      "gates": 4,
      "trailerYards": 5,
      "dropDocks": 5,
      "inboundLanes": 6,
      "outboundLanes": 8
    },
    "notes": "Onboarding in progress",
    "updatedAt": "2025-12-08T03:54:13.546Z"
  },
  {
    "id": "F0060",
    "name": "Seattle DC",
    "brand": "Arrowhead",
    "facilityType": "DC",
    "status": "Flow",
    "address": "1239 Industrial Blvd",
    "city": "Seattle",
    "state": "WA",
    "lat": 47.45703818477051,
    "lon": -122.56593985390182,
    "counts": {
      "trucks": 59,
      "trailers": 35,
      "guardShacks": 3,
      "gates": 7,
      "trailerYards": 4,
      "dropDocks": 17,
      "inboundLanes": 12,
      "outboundLanes": 5
    },
    "updatedAt": "2025-11-19T03:54:13.546Z"
  },
  {
    "id": "F0061",
    "name": "Minneapolis Yard",
    "brand": "Ice Mountain",
    "facilityType": "Yard",
    "status": "Flow",
    "address": "3442 Industrial Blvd",
    "city": "Minneapolis",
    "state": "MN",
    "lat": 45.024913815577634,
    "lon": -93.449716622819,
    "counts": {
      "trucks": 47,
      "trailers": 12,
      "guardShacks": 4,
      "gates": 6,
      "trailerYards": 5,
      "dropDocks": 8,
      "inboundLanes": 6,
      "outboundLanes": 2
    },
    "updatedAt": "2025-12-17T03:54:13.546Z"
  },
  {
    "id": "F0062",
    "name": "Albany Terminal",
    "brand": "Deer Park",
    "facilityType": "Terminal",
    "status": "Flow",
    "address": "9503 Industrial Blvd",
    "city": "Albany",
    "state": "NY",
    "lat": 42.84158733033029,
    "lon": -73.74099080656217,
    "counts": {
      "trucks": 57,
      "trailers": 73,
      "guardShacks": 1,
      "gates": 5,
      "trailerYards": 1,
      "dropDocks": 16,
      "inboundLanes": 4,
      "outboundLanes": 12
    },
    "updatedAt": "2025-12-04T03:54:13.546Z"
  },
  {
    "id": "F0063",
    "name": "Jacksonville DC",
    "brand": "Zephyrhills",
    "facilityType": "DC",
    "status": "Flow",
    "address": "8035 Industrial Blvd",
    "city": "Jacksonville",
    "state": "FL",
    "lat": 30.36529389726701,
    "lon": -81.85802233184208,
    "counts": {
      "trucks": 35,
      "trailers": 110,
      "guardShacks": 3,
      "gates": 8,
      "trailerYards": 2,
      "dropDocks": 11,
      "inboundLanes": 8,
      "outboundLanes": 9
    },
    "updatedAt": "2025-11-19T03:54:13.546Z"
  },
  {
    "id": "F0064",
    "name": "Birmingham Terminal",
    "brand": "Ice Mountain",
    "facilityType": "Terminal",
    "status": "Activating",
    "address": "9002 Industrial Blvd",
    "city": "Birmingham",
    "state": "AL",
    "lat": 33.719711161314045,
    "lon": -86.56948244651925,
    "counts": {
      "trucks": 20,
      "trailers": 46,
      "guardShacks": 2,
      "gates": 3,
      "trailerYards": 5,
      "dropDocks": 11,
      "inboundLanes": 9,
      "outboundLanes": 6
    },
    "notes": "Onboarding in progress",
    "updatedAt": "2025-11-30T03:54:13.546Z"
  },
  {
    "id": "F0065",
    "name": "Grand Rapids Plant",
    "brand": "Crystal Springs",
    "facilityType": "Plant",
    "status": "Flow",
    "address": "5537 Industrial Blvd",
    "city": "Grand Rapids",
    "state": "MI",
    "lat": 43.128648723401874,
    "lon": -85.66562743703084,
    "counts": {
      "trucks": 100,
      "trailers": 182,
      "guardShacks": 4,
      "gates": 6,
      "trailerYards": 5,
      "dropDocks": 15,
      "inboundLanes": 6,
      "outboundLanes": 10
    },
    "updatedAt": "2025-12-05T03:54:13.546Z"
  },
  {
    "id": "F0066",
    "name": "Oakland Plant",
    "brand": "Deer Park",
    "facilityType": "Plant",
    "status": "Flow",
    "address": "5123 Industrial Blvd",
    "city": "Oakland",
    "state": "CA",
    "lat": 37.61418134091936,
    "lon": -122.23261968054598,
    "counts": {
      "trucks": 24,
      "trailers": 42,
      "guardShacks": 2,
      "gates": 8,
      "trailerYards": 1,
      "dropDocks": 18,
      "inboundLanes": 8,
      "outboundLanes": 9
    },
    "updatedAt": "2025-12-03T03:54:13.546Z"
  },
  {
    "id": "F0067",
    "name": "Dayton DC",
    "brand": "Poland Spring",
    "facilityType": "DC",
    "status": "Chaos",
    "address": "4169 Industrial Blvd",
    "city": "Dayton",
    "state": "OH",
    "lat": 39.878103245426885,
    "lon": -84.17225587522205,
    "counts": {
      "trucks": 21,
      "trailers": 90,
      "guardShacks": 2,
      "gates": 3,
      "trailerYards": 3,
      "dropDocks": 15,
      "inboundLanes": 11,
      "outboundLanes": 12
    },
    "notes": "System integration pending",
    "updatedAt": "2025-12-03T03:54:13.546Z"
  },
  {
    "id": "F0068",
    "name": "Nashville DC",
    "brand": "Zephyrhills",
    "facilityType": "DC",
    "status": "Chaos",
    "address": "1864 Industrial Blvd",
    "city": "Nashville",
    "state": "TN",
    "lat": 36.27918252730811,
    "lon": -86.71105146840338,
    "counts": {
      "trucks": 65,
      "trailers": 150,
      "guardShacks": 4,
      "gates": 8,
      "trailerYards": 1,
      "dropDocks": 18,
      "inboundLanes": 3,
      "outboundLanes": 9
    },
    "notes": "System integration pending",
    "updatedAt": "2025-11-29T03:54:13.546Z"
  },
  {
    "id": "F0069",
    "name": "Peoria Terminal",
    "brand": "Poland Spring",
    "facilityType": "Terminal",
    "status": "Flow",
    "address": "338 Industrial Blvd",
    "city": "Peoria",
    "state": "IL",
    "lat": 40.90931126228264,
    "lon": -89.50745497896702,
    "counts": {
      "trucks": 20,
      "trailers": 75,
      "guardShacks": 3,
      "gates": 7,
      "trailerYards": 2,
      "dropDocks": 16,
      "inboundLanes": 8,
      "outboundLanes": 2
    },
    "updatedAt": "2025-11-22T03:54:13.546Z"
  },
  {
    "id": "F0070",
    "name": "Indianapolis Plant",
    "brand": "Crystal Springs",
    "facilityType": "Plant",
    "status": "Flow",
    "address": "8061 Industrial Blvd",
    "city": "Indianapolis",
    "state": "IN",
    "lat": 39.986139700659876,
    "lon": -86.08796998262586,
    "counts": {
      "trucks": 36,
      "trailers": 106,
      "guardShacks": 1,
      "gates": 4,
      "trailerYards": 5,
      "dropDocks": 13,
      "inboundLanes": 12,
      "outboundLanes": 8
    },
    "updatedAt": "2025-11-20T03:54:13.546Z"
  },
  {
    "id": "F0071",
    "name": "El Paso DC",
    "brand": "Zephyrhills",
    "facilityType": "DC",
    "status": "Flow",
    "address": "8928 Industrial Blvd",
    "city": "El Paso",
    "state": "TX",
    "lat": 31.64425829139626,
    "lon": -106.41789779810493,
    "counts": {
      "trucks": 53,
      "trailers": 129,
      "guardShacks": 4,
      "gates": 6,
      "trailerYards": 2,
      "dropDocks": 12,
      "inboundLanes": 4,
      "outboundLanes": 8
    },
    "updatedAt": "2025-12-07T03:54:13.546Z"
  },
  {
    "id": "F0072",
    "name": "Greenville Plant",
    "brand": "Crystal Springs",
    "facilityType": "Plant",
    "status": "Flow",
    "address": "8871 Industrial Blvd",
    "city": "Greenville",
    "state": "SC",
    "lat": 34.855360135030715,
    "lon": -82.51346242450552,
    "counts": {
      "trucks": 86,
      "trailers": 136,
      "guardShacks": 3,
      "gates": 7,
      "trailerYards": 1,
      "dropDocks": 15,
      "inboundLanes": 6,
      "outboundLanes": 6
    },
    "updatedAt": "2025-11-26T03:54:13.546Z"
  },
  {
    "id": "F0073",
    "name": "Kansas City Yard",
    "brand": "Poland Spring",
    "facilityType": "Yard",
    "status": "Flow",
    "address": "6193 Industrial Blvd",
    "city": "Kansas City",
    "state": "MO",
    "lat": 38.96589122039883,
    "lon": -94.69006819755595,
    "counts": {
      "trucks": 26,
      "trailers": 58,
      "guardShacks": 1,
      "gates": 5,
      "trailerYards": 3,
      "dropDocks": 13,
      "inboundLanes": 4,
      "outboundLanes": 3
    },
    "updatedAt": "2025-11-30T03:54:13.546Z"
  },
  {
    "id": "F0074",
    "name": "Buffalo Terminal",
    "brand": "Deer Park",
    "facilityType": "Terminal",
    "status": "Flow",
    "address": "8773 Industrial Blvd",
    "city": "Buffalo",
    "state": "NY",
    "lat": 42.997153371689045,
    "lon": -78.9700301369989,
    "counts": {
      "trucks": 23,
      "trailers": 107,
      "guardShacks": 2,
      "gates": 6,
      "trailerYards": 5,
      "dropDocks": 4,
      "inboundLanes": 12,
      "outboundLanes": 12
    },
    "updatedAt": "2025-11-25T03:54:13.546Z"
  },
  {
    "id": "F0075",
    "name": "Spokane Yard",
    "brand": "Arrowhead",
    "facilityType": "Yard",
    "status": "Flow",
    "address": "2047 Industrial Blvd",
    "city": "Spokane",
    "state": "WA",
    "lat": 47.69658890725033,
    "lon": -117.34169455451736,
    "counts": {
      "trucks": 47,
      "trailers": 60,
      "guardShacks": 2,
      "gates": 6,
      "trailerYards": 5,
      "dropDocks": 14,
      "inboundLanes": 6,
      "outboundLanes": 2
    },
    "updatedAt": "2025-11-20T03:54:13.546Z"
  },
  {
    "id": "F0076",
    "name": "St. Louis DC",
    "brand": "Pure Life",
    "facilityType": "DC",
    "status": "Flow",
    "address": "3958 Industrial Blvd",
    "city": "St. Louis",
    "state": "MO",
    "lat": 38.697717336629516,
    "lon": -90.33489431339947,
    "counts": {
      "trucks": 41,
      "trailers": 108,
      "guardShacks": 2,
      "gates": 5,
      "trailerYards": 5,
      "dropDocks": 8,
      "inboundLanes": 4,
      "outboundLanes": 9
    },
    "updatedAt": "2025-12-01T03:54:13.546Z"
  },
  {
    "id": "F0077",
    "name": "Cleveland CrossDock",
    "brand": "Arrowhead",
    "facilityType": "CrossDock",
    "status": "Flow",
    "address": "2736 Industrial Blvd",
    "city": "Cleveland",
    "state": "OH",
    "lat": 41.35761452171442,
    "lon": -81.84477326642687,
    "counts": {
      "trucks": 29,
      "trailers": 98,
      "guardShacks": 1,
      "gates": 4,
      "trailerYards": 1,
      "dropDocks": 15,
      "inboundLanes": 8,
      "outboundLanes": 8
    },
    "updatedAt": "2025-12-16T03:54:13.546Z"
  },
  {
    "id": "F0078",
    "name": "Austin Yard",
    "brand": "Zephyrhills",
    "facilityType": "Yard",
    "status": "Flow",
    "address": "5554 Industrial Blvd",
    "city": "Austin",
    "state": "TX",
    "lat": 30.113513475431997,
    "lon": -97.52349742572036,
    "counts": {
      "trucks": 41,
      "trailers": 99,
      "guardShacks": 1,
      "gates": 4,
      "trailerYards": 4,
      "dropDocks": 20,
      "inboundLanes": 11,
      "outboundLanes": 10
    },
    "updatedAt": "2025-11-23T03:54:13.546Z"
  },
  {
    "id": "F0079",
    "name": "Portland DC",
    "brand": "Poland Spring",
    "facilityType": "DC",
    "status": "Flow",
    "address": "9437 Industrial Blvd",
    "city": "Portland",
    "state": "OR",
    "lat": 45.345757041180406,
    "lon": -122.55406678947122,
    "counts": {
      "trucks": 8,
      "trailers": 84,
      "guardShacks": 4,
      "gates": 3,
      "trailerYards": 5,
      "dropDocks": 8,
      "inboundLanes": 6,
      "outboundLanes": 4
    },
    "updatedAt": "2025-12-18T03:54:13.546Z"
  },
  {
    "id": "F0080",
    "name": "Sioux Falls Terminal",
    "brand": "Crystal Springs",
    "facilityType": "Terminal",
    "status": "Flow",
    "address": "1251 Industrial Blvd",
    "city": "Sioux Falls",
    "state": "SD",
    "lat": 43.335749645833914,
    "lon": -96.89583145379905,
    "counts": {
      "trucks": 56,
      "trailers": 108,
      "guardShacks": 4,
      "gates": 3,
      "trailerYards": 4,
      "dropDocks": 7,
      "inboundLanes": 11,
      "outboundLanes": 12
    },
    "updatedAt": "2025-12-04T03:54:13.546Z"
  },
  {
    "id": "F0081",
    "name": "Albuquerque Plant",
    "brand": "Crystal Springs",
    "facilityType": "Plant",
    "status": "Flow",
    "address": "2841 Industrial Blvd",
    "city": "Albuquerque",
    "state": "NM",
    "lat": 35.2949813405924,
    "lon": -106.7894031550053,
    "counts": {
      "trucks": 70,
      "trailers": 176,
      "guardShacks": 4,
      "gates": 7,
      "trailerYards": 1,
      "dropDocks": 7,
      "inboundLanes": 10,
      "outboundLanes": 12
    },
    "updatedAt": "2025-11-21T03:54:13.546Z"
  },
  {
    "id": "F0082",
    "name": "Memphis Plant",
    "brand": "Arrowhead",
    "facilityType": "Plant",
    "status": "Activating",
    "address": "554 Industrial Blvd",
    "city": "Memphis",
    "state": "TN",
    "lat": 35.2342926982151,
    "lon": -89.88308123005302,
    "counts": {
      "trucks": 84,
      "trailers": 124,
      "guardShacks": 2,
      "gates": 2,
      "trailerYards": 2,
      "dropDocks": 14,
      "inboundLanes": 8,
      "outboundLanes": 11
    },
    "notes": "Onboarding in progress",
    "updatedAt": "2025-11-20T03:54:13.546Z"
  },
  {
    "id": "F0083",
    "name": "Cincinnati CrossDock",
    "brand": "Ozarka",
    "facilityType": "CrossDock",
    "status": "Flow",
    "address": "8915 Industrial Blvd",
    "city": "Cincinnati",
    "state": "OH",
    "lat": 39.198213154864064,
    "lon": -84.55335217229941,
    "counts": {
      "trucks": 34,
      "trailers": 58,
      "guardShacks": 3,
      "gates": 8,
      "trailerYards": 5,
      "dropDocks": 17,
      "inboundLanes": 2,
      "outboundLanes": 8
    },
    "updatedAt": "2025-12-01T03:54:13.546Z"
  },
  {
    "id": "F0084",
    "name": "Pittsburgh Plant",
    "brand": "Pure Life",
    "facilityType": "Plant",
    "status": "Flow",
    "address": "3740 Industrial Blvd",
    "city": "Pittsburgh",
    "state": "PA",
    "lat": 40.28376771497953,
    "lon": -80.03754646020764,
    "counts": {
      "trucks": 52,
      "trailers": 74,
      "guardShacks": 3,
      "gates": 7,
      "trailerYards": 1,
      "dropDocks": 18,
      "inboundLanes": 10,
      "outboundLanes": 7
    },
    "updatedAt": "2025-12-04T03:54:13.546Z"
  },
  {
    "id": "F0085",
    "name": "Savannah Plant",
    "brand": "Crystal Springs",
    "facilityType": "Plant",
    "status": "Activating",
    "address": "3020 Industrial Blvd",
    "city": "Savannah",
    "state": "GA",
    "lat": 32.04930273441103,
    "lon": -80.95047431893902,
    "counts": {
      "trucks": 60,
      "trailers": 74,
      "guardShacks": 4,
      "gates": 2,
      "trailerYards": 3,
      "dropDocks": 15,
      "inboundLanes": 9,
      "outboundLanes": 11
    },
    "notes": "Onboarding in progress",
    "updatedAt": "2025-12-13T03:54:13.546Z"
  },
  {
    "id": "F0086",
    "name": "Lexington Terminal",
    "brand": "Pure Life",
    "facilityType": "Terminal",
    "status": "Flow",
    "address": "7193 Industrial Blvd",
    "city": "Lexington",
    "state": "KY",
    "lat": 37.836294631806325,
    "lon": -84.54178093381849,
    "counts": {
      "trucks": 21,
      "trailers": 17,
      "guardShacks": 2,
      "gates": 6,
      "trailerYards": 2,
      "dropDocks": 14,
      "inboundLanes": 7,
      "outboundLanes": 12
    },
    "updatedAt": "2025-12-13T03:54:13.546Z"
  },
  {
    "id": "F0087",
    "name": "Phoenix Plant",
    "brand": "Primo",
    "facilityType": "Plant",
    "status": "Flow",
    "address": "127 Industrial Blvd",
    "city": "Phoenix",
    "state": "AZ",
    "lat": 33.37903472613994,
    "lon": -112.08778846731768,
    "counts": {
      "trucks": 80,
      "trailers": 94,
      "guardShacks": 1,
      "gates": 7,
      "trailerYards": 1,
      "dropDocks": 8,
      "inboundLanes": 10,
      "outboundLanes": 4
    },
    "updatedAt": "2025-11-20T03:54:13.546Z"
  },
  {
    "id": "F0088",
    "name": "Chicago Terminal",
    "brand": "Sparkletts",
    "facilityType": "Terminal",
    "status": "Chaos",
    "address": "8969 Industrial Blvd",
    "city": "Chicago",
    "state": "IL",
    "lat": 42.03416662502933,
    "lon": -87.53311687109847,
    "counts": {
      "trucks": 22,
      "trailers": 30,
      "guardShacks": 3,
      "gates": 6,
      "trailerYards": 2,
      "dropDocks": 10,
      "inboundLanes": 11,
      "outboundLanes": 10
    },
    "notes": "System integration pending",
    "updatedAt": "2025-11-23T03:54:13.546Z"
  },
  {
    "id": "F0089",
    "name": "Milwaukee Terminal",
    "brand": "Poland Spring",
    "facilityType": "Terminal",
    "status": "Flow",
    "address": "666 Industrial Blvd",
    "city": "Milwaukee",
    "state": "WI",
    "lat": 43.152174406423214,
    "lon": -88.02017136035323,
    "counts": {
      "trucks": 38,
      "trailers": 112,
      "guardShacks": 2,
      "gates": 4,
      "trailerYards": 3,
      "dropDocks": 9,
      "inboundLanes": 12,
      "outboundLanes": 4
    },
    "updatedAt": "2025-11-29T03:54:13.546Z"
  },
  {
    "id": "F0090",
    "name": "Amarillo Terminal",
    "brand": "Arrowhead",
    "facilityType": "Terminal",
    "status": "Flow",
    "address": "1947 Industrial Blvd",
    "city": "Amarillo",
    "state": "TX",
    "lat": 35.15315097338705,
    "lon": -101.81395698473278,
    "counts": {
      "trucks": 10,
      "trailers": 30,
      "guardShacks": 1,
      "gates": 5,
      "trailerYards": 3,
      "dropDocks": 16,
      "inboundLanes": 11,
      "outboundLanes": 6
    },
    "updatedAt": "2025-11-26T03:54:13.546Z"
  },
  {
    "id": "F0091",
    "name": "Columbia Yard 2",
    "brand": "Pure Life",
    "facilityType": "Yard",
    "status": "Flow",
    "address": "2902 Industrial Blvd",
    "city": "Columbia",
    "state": "SC",
    "lat": 34.00627893581572,
    "lon": -81.28220762200327,
    "counts": {
      "trucks": 13,
      "trailers": 33,
      "guardShacks": 2,
      "gates": 6,
      "trailerYards": 1,
      "dropDocks": 5,
      "inboundLanes": 6,
      "outboundLanes": 10
    },
    "updatedAt": "2025-12-10T03:54:13.546Z"
  },
  {
    "id": "F0092",
    "name": "Madison Yard 2",
    "brand": "Pure Life",
    "facilityType": "Yard",
    "status": "Chaos",
    "address": "660 Industrial Blvd",
    "city": "Madison",
    "state": "WI",
    "lat": 42.85824261190275,
    "lon": -89.56911787217881,
    "counts": {
      "trucks": 24,
      "trailers": 96,
      "guardShacks": 1,
      "gates": 2,
      "trailerYards": 5,
      "dropDocks": 12,
      "inboundLanes": 4,
      "outboundLanes": 5
    },
    "notes": "System integration pending",
    "updatedAt": "2025-12-06T03:54:13.546Z"
  },
  {
    "id": "F0093",
    "name": "Sacramento Yard 2",
    "brand": "Ice Mountain",
    "facilityType": "Yard",
    "status": "Flow",
    "address": "6632 Industrial Blvd",
    "city": "Sacramento",
    "state": "CA",
    "lat": 38.669663622560186,
    "lon": -121.45239500265048,
    "counts": {
      "trucks": 49,
      "trailers": 27,
      "guardShacks": 4,
      "gates": 4,
      "trailerYards": 2,
      "dropDocks": 10,
      "inboundLanes": 12,
      "outboundLanes": 8
    },
    "updatedAt": "2025-12-08T03:54:13.546Z"
  },
  {
    "id": "F0094",
    "name": "South Bend Yard 2",
    "brand": "Arrowhead",
    "facilityType": "Yard",
    "status": "Flow",
    "address": "8808 Industrial Blvd",
    "city": "South Bend",
    "state": "IN",
    "lat": 41.62779988779147,
    "lon": -86.50067881441205,
    "counts": {
      "trucks": 32,
      "trailers": 44,
      "guardShacks": 3,
      "gates": 8,
      "trailerYards": 3,
      "dropDocks": 6,
      "inboundLanes": 9,
      "outboundLanes": 2
    },
    "updatedAt": "2025-12-17T03:54:13.546Z"
  },
  {
    "id": "F0095",
    "name": "Mobile Plant 2",
    "brand": "Crystal Springs",
    "facilityType": "Plant",
    "status": "Flow",
    "address": "559 Industrial Blvd",
    "city": "Mobile",
    "state": "AL",
    "lat": 30.492148653116082,
    "lon": -88.24671131317088,
    "counts": {
      "trucks": 62,
      "trailers": 118,
      "guardShacks": 1,
      "gates": 5,
      "trailerYards": 4,
      "dropDocks": 4,
      "inboundLanes": 4,
      "outboundLanes": 9
    },
    "updatedAt": "2025-12-04T03:54:13.546Z"
  },
  {
    "id": "F0096",
    "name": "Des Moines Yard 2",
    "brand": "Arrowhead",
    "facilityType": "Yard",
    "status": "Flow",
    "address": "5942 Industrial Blvd",
    "city": "Des Moines",
    "state": "IA",
    "lat": 41.801497704871466,
    "lon": -93.74577454638347,
    "counts": {
      "trucks": 8,
      "trailers": 66,
      "guardShacks": 4,
      "gates": 5,
      "trailerYards": 4,
      "dropDocks": 12,
      "inboundLanes": 7,
      "outboundLanes": 4
    },
    "updatedAt": "2025-12-17T03:54:13.546Z"
  },
  {
    "id": "F0097",
    "name": "Toledo CrossDock 2",
    "brand": "Deer Park",
    "facilityType": "CrossDock",
    "status": "Flow",
    "address": "7253 Industrial Blvd",
    "city": "Toledo",
    "state": "OH",
    "lat": 41.742639949676274,
    "lon": -83.4688520227307,
    "counts": {
      "trucks": 37,
      "trailers": 98,
      "guardShacks": 4,
      "gates": 2,
      "trailerYards": 1,
      "dropDocks": 16,
      "inboundLanes": 2,
      "outboundLanes": 5
    },
    "updatedAt": "2025-11-22T03:54:13.546Z"
  },
  {
    "id": "F0098",
    "name": "Denver Terminal 2",
    "brand": "Poland Spring",
    "facilityType": "Terminal",
    "status": "Flow",
    "address": "1762 Industrial Blvd",
    "city": "Denver",
    "state": "CO",
    "lat": 39.91919789044097,
    "lon": -105.02156994890227,
    "counts": {
      "trucks": 51,
      "trailers": 98,
      "guardShacks": 4,
      "gates": 4,
      "trailerYards": 4,
      "dropDocks": 12,
      "inboundLanes": 3,
      "outboundLanes": 2
    },
    "updatedAt": "2025-11-26T03:54:13.546Z"
  },
  {
    "id": "F0099",
    "name": "Corpus Christi CrossDock 2",
    "brand": "Arrowhead",
    "facilityType": "CrossDock",
    "status": "Flow",
    "address": "7999 Industrial Blvd",
    "city": "Corpus Christi",
    "state": "TX",
    "lat": 28.00512462951289,
    "lon": -97.46237965985225,
    "counts": {
      "trucks": 22,
      "trailers": 84,
      "guardShacks": 1,
      "gates": 2,
      "trailerYards": 1,
      "dropDocks": 12,
      "inboundLanes": 4,
      "outboundLanes": 12
    },
    "updatedAt": "2025-11-27T03:54:13.546Z"
  },
  {
    "id": "F0100",
    "name": "Tucson CrossDock 2",
    "brand": "Primo",
    "facilityType": "CrossDock",
    "status": "Flow",
    "address": "3079 Industrial Blvd",
    "city": "Tucson",
    "state": "AZ",
    "lat": 32.329312298144885,
    "lon": -111.06059371382231,
    "counts": {
      "trucks": 46,
      "trailers": 70,
      "guardShacks": 1,
      "gates": 3,
      "trailerYards": 5,
      "dropDocks": 5,
      "inboundLanes": 8,
      "outboundLanes": 8
    },
    "updatedAt": "2025-12-16T03:54:13.546Z"
  },
  {
    "id": "F0101",
    "name": "Lubbock Plant 2",
    "brand": "Deer Park",
    "facilityType": "Plant",
    "status": "Flow",
    "address": "7219 Industrial Blvd",
    "city": "Lubbock",
    "state": "TX",
    "lat": 33.56345401932299,
    "lon": -101.87528208185543,
    "counts": {
      "trucks": 10,
      "trailers": 84,
      "guardShacks": 3,
      "gates": 3,
      "trailerYards": 5,
      "dropDocks": 19,
      "inboundLanes": 5,
      "outboundLanes": 2
    },
    "updatedAt": "2025-12-04T03:54:13.546Z"
  },
  {
    "id": "F0102",
    "name": "Cedar Rapids CrossDock 2",
    "brand": "Sparkletts",
    "facilityType": "CrossDock",
    "status": "Flow",
    "address": "2773 Industrial Blvd",
    "city": "Cedar Rapids",
    "state": "IA",
    "lat": 42.1003205817748,
    "lon": -91.70491603043429,
    "counts": {
      "trucks": 18,
      "trailers": 49,
      "guardShacks": 1,
      "gates": 8,
      "trailerYards": 3,
      "dropDocks": 7,
      "inboundLanes": 3,
      "outboundLanes": 2
    },
    "updatedAt": "2025-11-23T03:54:13.546Z"
  },
  {
    "id": "F0103",
    "name": "Laredo DC 2",
    "brand": "Zephyrhills",
    "facilityType": "DC",
    "status": "Flow",
    "address": "3026 Industrial Blvd",
    "city": "Laredo",
    "state": "TX",
    "lat": 27.715622620689324,
    "lon": -99.38986567332904,
    "counts": {
      "trucks": 50,
      "trailers": 60,
      "guardShacks": 3,
      "gates": 2,
      "trailerYards": 2,
      "dropDocks": 5,
      "inboundLanes": 3,
      "outboundLanes": 12
    },
    "updatedAt": "2025-12-18T03:54:13.546Z"
  },
  {
    "id": "F0104",
    "name": "Fargo Plant 2",
    "brand": "Ozarka",
    "facilityType": "Plant",
    "status": "Flow",
    "address": "287 Industrial Blvd",
    "city": "Fargo",
    "state": "ND",
    "lat": 47.063076448680576,
    "lon": -96.83170453126193,
    "counts": {
      "trucks": 74,
      "trailers": 70,
      "guardShacks": 2,
      "gates": 6,
      "trailerYards": 5,
      "dropDocks": 12,
      "inboundLanes": 12,
      "outboundLanes": 12
    },
    "updatedAt": "2025-11-27T03:54:13.546Z"
  },
  {
    "id": "F0105",
    "name": "San Jose Terminal 2",
    "brand": "Crystal Springs",
    "facilityType": "Terminal",
    "status": "Flow",
    "address": "2315 Industrial Blvd",
    "city": "San Jose",
    "state": "CA",
    "lat": 37.552230438386545,
    "lon": -122.00210513169066,
    "counts": {
      "trucks": 10,
      "trailers": 42,
      "guardShacks": 4,
      "gates": 7,
      "trailerYards": 2,
      "dropDocks": 10,
      "inboundLanes": 9,
      "outboundLanes": 2
    },
    "updatedAt": "2025-11-20T03:54:13.546Z"
  },
  {
    "id": "F0106",
    "name": "Riverside Terminal 2",
    "brand": "Ice Mountain",
    "facilityType": "Terminal",
    "status": "Flow",
    "address": "6729 Industrial Blvd",
    "city": "Riverside",
    "state": "CA",
    "lat": 34.057909839959414,
    "lon": -117.59554811954958,
    "counts": {
      "trucks": 10,
      "trailers": 34,
      "guardShacks": 1,
      "gates": 4,
      "trailerYards": 3,
      "dropDocks": 13,
      "inboundLanes": 5,
      "outboundLanes": 4
    },
    "updatedAt": "2025-12-07T03:54:13.546Z"
  },
  {
    "id": "F0107",
    "name": "Syracuse Plant 2",
    "brand": "Ice Mountain",
    "facilityType": "Plant",
    "status": "Activating",
    "address": "303 Industrial Blvd",
    "city": "Syracuse",
    "state": "NY",
    "lat": 42.977862690903315,
    "lon": -76.07964555918596,
    "counts": {
      "trucks": 48,
      "trailers": 60,
      "guardShacks": 3,
      "gates": 3,
      "trailerYards": 3,
      "dropDocks": 11,
      "inboundLanes": 6,
      "outboundLanes": 4
    },
    "notes": "Onboarding in progress",
    "updatedAt": "2025-12-15T03:54:13.546Z"
  },
  {
    "id": "F0108",
    "name": "Atlanta CrossDock 2",
    "brand": "Ozarka",
    "facilityType": "CrossDock",
    "status": "Flow",
    "address": "1147 Industrial Blvd",
    "city": "Atlanta",
    "state": "GA",
    "lat": 33.774932215349715,
    "lon": -84.51487521727003,
    "counts": {
      "trucks": 11,
      "trailers": 10,
      "guardShacks": 1,
      "gates": 5,
      "trailerYards": 4,
      "dropDocks": 12,
      "inboundLanes": 4,
      "outboundLanes": 8
    },
    "updatedAt": "2025-11-19T03:54:13.546Z"
  },
  {
    "id": "F0109",
    "name": "Green Bay DC 2",
    "brand": "Sparkletts",
    "facilityType": "DC",
    "status": "Activating",
    "address": "2890 Industrial Blvd",
    "city": "Green Bay",
    "state": "WI",
    "lat": 44.5518763510958,
    "lon": -87.96372514706893,
    "counts": {
      "trucks": 17,
      "trailers": 75,
      "guardShacks": 2,
      "gates": 2,
      "trailerYards": 5,
      "dropDocks": 9,
      "inboundLanes": 12,
      "outboundLanes": 3
    },
    "notes": "Onboarding in progress",
    "updatedAt": "2025-12-18T03:54:13.546Z"
  },
  {
    "id": "F0110",
    "name": "Los Angeles DC 2",
    "brand": "Pure Life",
    "facilityType": "DC",
    "status": "Flow",
    "address": "9607 Industrial Blvd",
    "city": "Los Angeles",
    "state": "CA",
    "lat": 34.08123861526511,
    "lon": -118.09287296092045,
    "counts": {
      "trucks": 54,
      "trailers": 96,
      "guardShacks": 4,
      "gates": 5,
      "trailerYards": 3,
      "dropDocks": 15,
      "inboundLanes": 5,
      "outboundLanes": 2
    },
    "updatedAt": "2025-11-24T03:54:13.546Z"
  },
  {
    "id": "F0111",
    "name": "Newark Plant 2",
    "brand": "Arrowhead",
    "facilityType": "Plant",
    "status": "Flow",
    "address": "8963 Industrial Blvd",
    "city": "Newark",
    "state": "NJ",
    "lat": 40.83958231836737,
    "lon": -73.92350367872139,
    "counts": {
      "trucks": 52,
      "trailers": 194,
      "guardShacks": 3,
      "gates": 3,
      "trailerYards": 3,
      "dropDocks": 10,
      "inboundLanes": 11,
      "outboundLanes": 10
    },
    "updatedAt": "2025-11-21T03:54:13.546Z"
  },
  {
    "id": "F0112",
    "name": "Charlotte Plant 2",
    "brand": "Primo",
    "facilityType": "Plant",
    "status": "Flow",
    "address": "4461 Industrial Blvd",
    "city": "Charlotte",
    "state": "NC",
    "lat": 35.1117284432293,
    "lon": -81.08297474099663,
    "counts": {
      "trucks": 72,
      "trailers": 90,
      "guardShacks": 2,
      "gates": 2,
      "trailerYards": 5,
      "dropDocks": 12,
      "inboundLanes": 11,
      "outboundLanes": 6
    },
    "updatedAt": "2025-12-14T03:54:13.546Z"
  },
  {
    "id": "F0113",
    "name": "Rockford Yard 2",
    "brand": "Crystal Springs",
    "facilityType": "Yard",
    "status": "Activating",
    "address": "7176 Industrial Blvd",
    "city": "Rockford",
    "state": "IL",
    "lat": 42.51174545643432,
    "lon": -89.23019255233152,
    "counts": {
      "trucks": 42,
      "trailers": 92,
      "guardShacks": 2,
      "gates": 3,
      "trailerYards": 4,
      "dropDocks": 16,
      "inboundLanes": 7,
      "outboundLanes": 2
    },
    "notes": "Onboarding in progress",
    "updatedAt": "2025-12-10T03:54:13.546Z"
  },
  {
    "id": "F0114",
    "name": "Providence Plant 2",
    "brand": "Poland Spring",
    "facilityType": "Plant",
    "status": "Flow",
    "address": "2317 Industrial Blvd",
    "city": "Providence",
    "state": "RI",
    "lat": 41.8688648903357,
    "lon": -71.17787287743334,
    "counts": {
      "trucks": 100,
      "trailers": 36,
      "guardShacks": 4,
      "gates": 5,
      "trailerYards": 3,
      "dropDocks": 17,
      "inboundLanes": 12,
      "outboundLanes": 3
    },
    "updatedAt": "2025-12-02T03:54:13.546Z"
  },
  {
    "id": "F0115",
    "name": "Fort Wayne DC 2",
    "brand": "Arrowhead",
    "facilityType": "DC",
    "status": "Flow",
    "address": "9201 Industrial Blvd",
    "city": "Fort Wayne",
    "state": "IN",
    "lat": 40.838411762875054,
    "lon": -84.89935781694109,
    "counts": {
      "trucks": 23,
      "trailers": 128,
      "guardShacks": 1,
      "gates": 4,
      "trailerYards": 4,
      "dropDocks": 18,
      "inboundLanes": 7,
      "outboundLanes": 7
    },
    "updatedAt": "2025-12-18T03:54:13.546Z"
  },
  {
    "id": "F0116",
    "name": "Boise Plant 2",
    "brand": "Sparkletts",
    "facilityType": "Plant",
    "status": "Flow",
    "address": "1710 Industrial Blvd",
    "city": "Boise",
    "state": "ID",
    "lat": 43.719618184117046,
    "lon": -116.31187987630376,
    "counts": {
      "trucks": 38,
      "trailers": 112,
      "guardShacks": 3,
      "gates": 6,
      "trailerYards": 4,
      "dropDocks": 14,
      "inboundLanes": 5,
      "outboundLanes": 2
    },
    "updatedAt": "2025-12-11T03:54:13.546Z"
  },
  {
    "id": "F0117",
    "name": "Jackson Plant 2",
    "brand": "Primo",
    "facilityType": "Plant",
    "status": "Flow",
    "address": "4037 Industrial Blvd",
    "city": "Jackson",
    "state": "MS",
    "lat": 32.24610266882016,
    "lon": -90.27627422490127,
    "counts": {
      "trucks": 62,
      "trailers": 72,
      "guardShacks": 3,
      "gates": 7,
      "trailerYards": 2,
      "dropDocks": 15,
      "inboundLanes": 4,
      "outboundLanes": 6
    },
    "updatedAt": "2025-11-21T03:54:13.546Z"
  },
  {
    "id": "F0118",
    "name": "Louisville DC 2",
    "brand": "Zephyrhills",
    "facilityType": "DC",
    "status": "Flow",
    "address": "8519 Industrial Blvd",
    "city": "Louisville",
    "state": "KY",
    "lat": 38.13861578989508,
    "lon": -85.87415105490808,
    "counts": {
      "trucks": 12,
      "trailers": 47,
      "guardShacks": 3,
      "gates": 6,
      "trailerYards": 5,
      "dropDocks": 6,
      "inboundLanes": 6,
      "outboundLanes": 2
    },
    "updatedAt": "2025-12-13T03:54:13.546Z"
  },
  {
    "id": "F0119",
    "name": "Fresno DC 2",
    "brand": "Arrowhead",
    "facilityType": "DC",
    "status": "Flow",
    "address": "1617 Industrial Blvd",
    "city": "Fresno",
    "state": "CA",
    "lat": 36.82229558831262,
    "lon": -119.8624888451336,
    "counts": {
      "trucks": 53,
      "trailers": 96,
      "guardShacks": 2,
      "gates": 7,
      "trailerYards": 2,
      "dropDocks": 14,
      "inboundLanes": 2,
      "outboundLanes": 3
    },
    "updatedAt": "2025-11-22T03:54:13.546Z"
  },
  {
    "id": "F0120",
    "name": "Chattanooga Terminal 2",
    "brand": "Zephyrhills",
    "facilityType": "Terminal",
    "status": "Flow",
    "address": "1900 Industrial Blvd",
    "city": "Chattanooga",
    "state": "TN",
    "lat": 35.14094795924219,
    "lon": -85.47502053494303,
    "counts": {
      "trucks": 51,
      "trailers": 101,
      "guardShacks": 4,
      "gates": 6,
      "trailerYards": 1,
      "dropDocks": 8,
      "inboundLanes": 11,
      "outboundLanes": 9
    },
    "updatedAt": "2025-11-23T03:54:13.546Z"
  },
  {
    "id": "F0121",
    "name": "Dallas DC 2",
    "brand": "Crystal Springs",
    "facilityType": "DC",
    "status": "Flow",
    "address": "1590 Industrial Blvd",
    "city": "Dallas",
    "state": "TX",
    "lat": 32.59430266133369,
    "lon": -96.55551078401939,
    "counts": {
      "trucks": 20,
      "trailers": 110,
      "guardShacks": 2,
      "gates": 2,
      "trailerYards": 3,
      "dropDocks": 18,
      "inboundLanes": 11,
      "outboundLanes": 10
    },
    "updatedAt": "2025-12-17T03:54:13.546Z"
  },
  {
    "id": "F0122",
    "name": "Harrisburg Plant 2",
    "brand": "Ice Mountain",
    "facilityType": "Plant",
    "status": "Flow",
    "address": "9744 Industrial Blvd",
    "city": "Harrisburg",
    "state": "PA",
    "lat": 40.40681051514585,
    "lon": -76.90065119546442,
    "counts": {
      "trucks": 44,
      "trailers": 196,
      "guardShacks": 2,
      "gates": 4,
      "trailerYards": 5,
      "dropDocks": 9,
      "inboundLanes": 3,
      "outboundLanes": 7
    },
    "updatedAt": "2025-12-13T03:54:13.546Z"
  },
  {
    "id": "F0123",
    "name": "Raleigh CrossDock 2",
    "brand": "Sparkletts",
    "facilityType": "CrossDock",
    "status": "Chaos",
    "address": "1348 Industrial Blvd",
    "city": "Raleigh",
    "state": "NC",
    "lat": 35.75099368757007,
    "lon": -78.58978554567479,
    "counts": {
      "trucks": 41,
      "trailers": 89,
      "guardShacks": 4,
      "gates": 8,
      "trailerYards": 1,
      "dropDocks": 18,
      "inboundLanes": 5,
      "outboundLanes": 9
    },
    "notes": "System integration pending",
    "updatedAt": "2025-12-12T03:54:13.546Z"
  },
  {
    "id": "F0124",
    "name": "Wichita DC 2",
    "brand": "Ozarka",
    "facilityType": "DC",
    "status": "Flow",
    "address": "908 Industrial Blvd",
    "city": "Wichita",
    "state": "KS",
    "lat": 37.63628594503107,
    "lon": -97.11773162778978,
    "counts": {
      "trucks": 51,
      "trailers": 32,
      "guardShacks": 2,
      "gates": 3,
      "trailerYards": 4,
      "dropDocks": 13,
      "inboundLanes": 7,
      "outboundLanes": 8
    },
    "updatedAt": "2025-12-12T03:54:13.546Z"
  },
  {
    "id": "F0125",
    "name": "Houston DC 2",
    "brand": "Pure Life",
    "facilityType": "DC",
    "status": "Flow",
    "address": "9139 Industrial Blvd",
    "city": "Houston",
    "state": "TX",
    "lat": 29.759077706416857,
    "lon": -95.47802066238575,
    "counts": {
      "trucks": 23,
      "trailers": 147,
      "guardShacks": 1,
      "gates": 4,
      "trailerYards": 5,
      "dropDocks": 10,
      "inboundLanes": 3,
      "outboundLanes": 10
    },
    "updatedAt": "2025-11-24T03:54:13.546Z"
  },
  {
    "id": "F0126",
    "name": "Norfolk Yard 2",
    "brand": "Zephyrhills",
    "facilityType": "Yard",
    "status": "Flow",
    "address": "7230 Industrial Blvd",
    "city": "Norfolk",
    "state": "VA",
    "lat": 36.95175265684049,
    "lon": -76.32150161419773,
    "counts": {
      "trucks": 44,
      "trailers": 70,
      "guardShacks": 3,
      "gates": 2,
      "trailerYards": 2,
      "dropDocks": 14,
      "inboundLanes": 10,
      "outboundLanes": 8
    },
    "updatedAt": "2025-11-30T03:54:13.546Z"
  },
  {
    "id": "F0127",
    "name": "Akron Yard 2",
    "brand": "Sparkletts",
    "facilityType": "Yard",
    "status": "Chaos",
    "address": "5163 Industrial Blvd",
    "city": "Akron",
    "state": "OH",
    "lat": 41.09663288838371,
    "lon": -81.52186647407666,
    "counts": {
      "trucks": 37,
      "trailers": 93,
      "guardShacks": 2,
      "gates": 3,
      "trailerYards": 1,
      "dropDocks": 9,
      "inboundLanes": 4,
      "outboundLanes": 10
    },
    "notes": "System integration pending",
    "updatedAt": "2025-11-28T03:54:13.546Z"
  },
  {
    "id": "F0128",
    "name": "Detroit DC 2",
    "brand": "Ice Mountain",
    "facilityType": "DC",
    "status": "Flow",
    "address": "2365 Industrial Blvd",
    "city": "Detroit",
    "state": "MI",
    "lat": 42.218019048074865,
    "lon": -83.09811071525941,
    "counts": {
      "trucks": 63,
      "trailers": 42,
      "guardShacks": 4,
      "gates": 8,
      "trailerYards": 5,
      "dropDocks": 17,
      "inboundLanes": 6,
      "outboundLanes": 5
    },
    "updatedAt": "2025-11-28T03:54:13.546Z"
  },
  {
    "id": "F0129",
    "name": "Little Rock CrossDock 2",
    "brand": "Pure Life",
    "facilityType": "CrossDock",
    "status": "Flow",
    "address": "7752 Industrial Blvd",
    "city": "Little Rock",
    "state": "AR",
    "lat": 34.74955327709111,
    "lon": -92.2075754863644,
    "counts": {
      "trucks": 22,
      "trailers": 11,
      "guardShacks": 4,
      "gates": 3,
      "trailerYards": 4,
      "dropDocks": 5,
      "inboundLanes": 4,
      "outboundLanes": 9
    },
    "updatedAt": "2025-11-28T03:54:13.546Z"
  },
  {
    "id": "F0130",
    "name": "Springfield Yard 2",
    "brand": "Primo",
    "facilityType": "Yard",
    "status": "Flow",
    "address": "2331 Industrial Blvd",
    "city": "Springfield",
    "state": "MO",
    "lat": 37.18315273978661,
    "lon": -93.42921138424587,
    "counts": {
      "trucks": 27,
      "trailers": 99,
      "guardShacks": 1,
      "gates": 6,
      "trailerYards": 2,
      "dropDocks": 5,
      "inboundLanes": 6,
      "outboundLanes": 2
    },
    "updatedAt": "2025-12-04T03:54:13.546Z"
  },
  {
    "id": "F0131",
    "name": "Tampa DC 2",
    "brand": "Ozarka",
    "facilityType": "DC",
    "status": "Chaos",
    "address": "7912 Industrial Blvd",
    "city": "Tampa",
    "state": "FL",
    "lat": 27.735620832381635,
    "lon": -82.51285832262755,
    "counts": {
      "trucks": 59,
      "trailers": 81,
      "guardShacks": 2,
      "gates": 6,
      "trailerYards": 3,
      "dropDocks": 4,
      "inboundLanes": 10,
      "outboundLanes": 8
    },
    "notes": "System integration pending",
    "updatedAt": "2025-12-14T03:54:13.546Z"
  },
  {
    "id": "F0132",
    "name": "Orlando Plant 2",
    "brand": "Deer Park",
    "facilityType": "Plant",
    "status": "Flow",
    "address": "9858 Industrial Blvd",
    "city": "Orlando",
    "state": "FL",
    "lat": 28.607524606658735,
    "lon": -81.20042533088932,
    "counts": {
      "trucks": 28,
      "trailers": 148,
      "guardShacks": 3,
      "gates": 4,
      "trailerYards": 3,
      "dropDocks": 8,
      "inboundLanes": 9,
      "outboundLanes": 6
    },
    "updatedAt": "2025-12-11T03:54:13.546Z"
  },
  {
    "id": "F0133",
    "name": "Miami DC 2",
    "brand": "Ozarka",
    "facilityType": "DC",
    "status": "Activating",
    "address": "1821 Industrial Blvd",
    "city": "Miami",
    "state": "FL",
    "lat": 25.519779779027754,
    "lon": -80.4084829560856,
    "counts": {
      "trucks": 74,
      "trailers": 50,
      "guardShacks": 4,
      "gates": 6,
      "trailerYards": 1,
      "dropDocks": 6,
      "inboundLanes": 7,
      "outboundLanes": 11
    },
    "notes": "Onboarding in progress",
    "updatedAt": "2025-11-26T03:54:13.546Z"
  },
  {
    "id": "F0134",
    "name": "Richmond DC 2",
    "brand": "Deer Park",
    "facilityType": "DC",
    "status": "Activating",
    "address": "6900 Industrial Blvd",
    "city": "Richmond",
    "state": "VA",
    "lat": 37.71200472206509,
    "lon": -77.68130926282399,
    "counts": {
      "trucks": 23,
      "trailers": 71,
      "guardShacks": 4,
      "gates": 3,
      "trailerYards": 3,
      "dropDocks": 7,
      "inboundLanes": 5,
      "outboundLanes": 7
    },
    "notes": "Onboarding in progress",
    "updatedAt": "2025-12-11T03:54:13.546Z"
  },
  {
    "id": "F0135",
    "name": "Salt Lake City DC 2",
    "brand": "Zephyrhills",
    "facilityType": "DC",
    "status": "Flow",
    "address": "2424 Industrial Blvd",
    "city": "Salt Lake City",
    "state": "UT",
    "lat": 40.56385132116428,
    "lon": -111.74242316706925,
    "counts": {
      "trucks": 44,
      "trailers": 59,
      "guardShacks": 3,
      "gates": 3,
      "trailerYards": 3,
      "dropDocks": 15,
      "inboundLanes": 11,
      "outboundLanes": 12
    },
    "updatedAt": "2025-12-11T03:54:13.546Z"
  },
  {
    "id": "F0136",
    "name": "Shreveport DC 2",
    "brand": "Zephyrhills",
    "facilityType": "DC",
    "status": "Chaos",
    "address": "2852 Industrial Blvd",
    "city": "Shreveport",
    "state": "LA",
    "lat": 32.652418971248565,
    "lon": -93.88482625424564,
    "counts": {
      "trucks": 60,
      "trailers": 27,
      "guardShacks": 2,
      "gates": 5,
      "trailerYards": 5,
      "dropDocks": 4,
      "inboundLanes": 6,
      "outboundLanes": 6
    },
    "notes": "System integration pending",
    "updatedAt": "2025-11-21T03:54:13.546Z"
  },
  {
    "id": "F0137",
    "name": "Hartford Terminal 2",
    "brand": "Deer Park",
    "facilityType": "Terminal",
    "status": "Chaos",
    "address": "1106 Industrial Blvd",
    "city": "Hartford",
    "state": "CT",
    "lat": 42.009587831547705,
    "lon": -72.89278358205989,
    "counts": {
      "trucks": 62,
      "trailers": 47,
      "guardShacks": 1,
      "gates": 8,
      "trailerYards": 4,
      "dropDocks": 20,
      "inboundLanes": 8,
      "outboundLanes": 8
    },
    "notes": "System integration pending",
    "updatedAt": "2025-12-04T03:54:13.546Z"
  },
  {
    "id": "F0138",
    "name": "Las Vegas Terminal 2",
    "brand": "Sparkletts",
    "facilityType": "Terminal",
    "status": "Flow",
    "address": "3620 Industrial Blvd",
    "city": "Las Vegas",
    "state": "NV",
    "lat": 35.93652526713153,
    "lon": -115.25228232708658,
    "counts": {
      "trucks": 30,
      "trailers": 52,
      "guardShacks": 4,
      "gates": 3,
      "trailerYards": 4,
      "dropDocks": 18,
      "inboundLanes": 7,
      "outboundLanes": 12
    },
    "updatedAt": "2025-12-18T03:54:13.546Z"
  },
  {
    "id": "F0139",
    "name": "Knoxville Terminal 2",
    "brand": "Sparkletts",
    "facilityType": "Terminal",
    "status": "Activating",
    "address": "5715 Industrial Blvd",
    "city": "Knoxville",
    "state": "TN",
    "lat": 36.204329785370305,
    "lon": -83.92862124881081,
    "counts": {
      "trucks": 14,
      "trailers": 40,
      "guardShacks": 2,
      "gates": 8,
      "trailerYards": 3,
      "dropDocks": 4,
      "inboundLanes": 3,
      "outboundLanes": 9
    },
    "notes": "Onboarding in progress",
    "updatedAt": "2025-12-05T03:54:13.546Z"
  },
  {
    "id": "F0140",
    "name": "Tulsa Yard 2",
    "brand": "Pure Life",
    "facilityType": "Yard",
    "status": "Flow",
    "address": "858 Industrial Blvd",
    "city": "Tulsa",
    "state": "OK",
    "lat": 36.26485025800822,
    "lon": -95.81667328536061,
    "counts": {
      "trucks": 14,
      "trailers": 78,
      "guardShacks": 1,
      "gates": 8,
      "trailerYards": 3,
      "dropDocks": 10,
      "inboundLanes": 9,
      "outboundLanes": 2
    },
    "updatedAt": "2025-11-21T03:54:13.546Z"
  },
  {
    "id": "F0141",
    "name": "San Diego Plant 2",
    "brand": "Ozarka",
    "facilityType": "Plant",
    "status": "Flow",
    "address": "8185 Industrial Blvd",
    "city": "San Diego",
    "state": "CA",
    "lat": 32.90126621998141,
    "lon": -117.18535750631119,
    "counts": {
      "trucks": 64,
      "trailers": 176,
      "guardShacks": 2,
      "gates": 7,
      "trailerYards": 3,
      "dropDocks": 18,
      "inboundLanes": 12,
      "outboundLanes": 12
    },
    "updatedAt": "2025-11-26T03:54:13.546Z"
  },
  {
    "id": "F0142",
    "name": "San Antonio Yard 2",
    "brand": "Crystal Springs",
    "facilityType": "Yard",
    "status": "Flow",
    "address": "734 Industrial Blvd",
    "city": "San Antonio",
    "state": "TX",
    "lat": 29.602406922122373,
    "lon": -98.38807152194089,
    "counts": {
      "trucks": 30,
      "trailers": 42,
      "guardShacks": 4,
      "gates": 2,
      "trailerYards": 4,
      "dropDocks": 16,
      "inboundLanes": 3,
      "outboundLanes": 7
    },
    "updatedAt": "2025-12-11T03:54:13.546Z"
  },
  {
    "id": "F0143",
    "name": "Charleston CrossDock 2",
    "brand": "Ice Mountain",
    "facilityType": "CrossDock",
    "status": "Activating",
    "address": "5645 Industrial Blvd",
    "city": "Charleston",
    "state": "SC",
    "lat": 32.53794859830492,
    "lon": -79.86011305559752,
    "counts": {
      "trucks": 26,
      "trailers": 31,
      "guardShacks": 1,
      "gates": 2,
      "trailerYards": 1,
      "dropDocks": 13,
      "inboundLanes": 9,
      "outboundLanes": 5
    },
    "notes": "Onboarding in progress",
    "updatedAt": "2025-12-18T03:54:13.546Z"
  },
  {
    "id": "F0144",
    "name": "New Orleans Plant 2",
    "brand": "Sparkletts",
    "facilityType": "Plant",
    "status": "Flow",
    "address": "2774 Industrial Blvd",
    "city": "New Orleans",
    "state": "LA",
    "lat": 30.122811203709492,
    "lon": -90.3186979226475,
    "counts": {
      "trucks": 88,
      "trailers": 190,
      "guardShacks": 4,
      "gates": 8,
      "trailerYards": 1,
      "dropDocks": 9,
      "inboundLanes": 5,
      "outboundLanes": 8
    },
    "updatedAt": "2025-12-04T03:54:13.546Z"
  },
  {
    "id": "F0145",
    "name": "Columbus Yard 2",
    "brand": "Ice Mountain",
    "facilityType": "Yard",
    "status": "Activating",
    "address": "3388 Industrial Blvd",
    "city": "Columbus",
    "state": "OH",
    "lat": 40.028649868049605,
    "lon": -82.81374575035595,
    "counts": {
      "trucks": 46,
      "trailers": 21,
      "guardShacks": 2,
      "gates": 3,
      "trailerYards": 2,
      "dropDocks": 9,
      "inboundLanes": 3,
      "outboundLanes": 10
    },
    "notes": "Onboarding in progress",
    "updatedAt": "2025-11-27T03:54:13.546Z"
  },
  {
    "id": "F0146",
    "name": "Philadelphia CrossDock 2",
    "brand": "Crystal Springs",
    "facilityType": "CrossDock",
    "status": "Flow",
    "address": "1294 Industrial Blvd",
    "city": "Philadelphia",
    "state": "PA",
    "lat": 39.865838886977066,
    "lon": -75.03278566357093,
    "counts": {
      "trucks": 49,
      "trailers": 17,
      "guardShacks": 2,
      "gates": 5,
      "trailerYards": 2,
      "dropDocks": 11,
      "inboundLanes": 5,
      "outboundLanes": 10
    },
    "updatedAt": "2025-12-16T03:54:13.546Z"
  },
  {
    "id": "F0147",
    "name": "Fort Worth CrossDock 2",
    "brand": "Primo",
    "facilityType": "CrossDock",
    "status": "Flow",
    "address": "9206 Industrial Blvd",
    "city": "Fort Worth",
    "state": "TX",
    "lat": 32.82129869635607,
    "lon": -97.11800859683767,
    "counts": {
      "trucks": 49,
      "trailers": 47,
      "guardShacks": 1,
      "gates": 8,
      "trailerYards": 5,
      "dropDocks": 8,
      "inboundLanes": 6,
      "outboundLanes": 6
    },
    "updatedAt": "2025-11-26T03:54:13.546Z"
  },
  {
    "id": "F0148",
    "name": "Omaha CrossDock 2",
    "brand": "Poland Spring",
    "facilityType": "CrossDock",
    "status": "Flow",
    "address": "9464 Industrial Blvd",
    "city": "Omaha",
    "state": "NE",
    "lat": 41.49942643657646,
    "lon": -95.85860193221053,
    "counts": {
      "trucks": 24,
      "trailers": 78,
      "guardShacks": 3,
      "gates": 7,
      "trailerYards": 2,
      "dropDocks": 11,
      "inboundLanes": 3,
      "outboundLanes": 12
    },
    "updatedAt": "2025-11-25T03:54:13.546Z"
  },
  {
    "id": "F0149",
    "name": "Boston Yard 2",
    "brand": "Pure Life",
    "facilityType": "Yard",
    "status": "Activating",
    "address": "3429 Industrial Blvd",
    "city": "Boston",
    "state": "MA",
    "lat": 42.22344742698364,
    "lon": -71.0023317604755,
    "counts": {
      "trucks": 43,
      "trailers": 83,
      "guardShacks": 4,
      "gates": 8,
      "trailerYards": 2,
      "dropDocks": 18,
      "inboundLanes": 12,
      "outboundLanes": 4
    },
    "notes": "Onboarding in progress",
    "updatedAt": "2025-12-07T03:54:13.546Z"
  },
  {
    "id": "F0150",
    "name": "Seattle Yard 2",
    "brand": "Ice Mountain",
    "facilityType": "Yard",
    "status": "Flow",
    "address": "5014 Industrial Blvd",
    "city": "Seattle",
    "state": "WA",
    "lat": 47.8561482938008,
    "lon": -122.54237735729421,
    "counts": {
      "trucks": 8,
      "trailers": 17,
      "guardShacks": 3,
      "gates": 6,
      "trailerYards": 4,
      "dropDocks": 10,
      "inboundLanes": 10,
      "outboundLanes": 3
    },
    "updatedAt": "2025-12-15T03:54:13.546Z"
  },
  {
    "id": "F0151",
    "name": "Minneapolis DC 2",
    "brand": "Primo",
    "facilityType": "DC",
    "status": "Flow",
    "address": "8493 Industrial Blvd",
    "city": "Minneapolis",
    "state": "MN",
    "lat": 45.11481531754532,
    "lon": -93.24661758896004,
    "counts": {
      "trucks": 69,
      "trailers": 18,
      "guardShacks": 2,
      "gates": 2,
      "trailerYards": 3,
      "dropDocks": 12,
      "inboundLanes": 9,
      "outboundLanes": 12
    },
    "updatedAt": "2025-11-21T03:54:13.546Z"
  },
  {
    "id": "F0152",
    "name": "Albany DC 2",
    "brand": "Arrowhead",
    "facilityType": "DC",
    "status": "Flow",
    "address": "3445 Industrial Blvd",
    "city": "Albany",
    "state": "NY",
    "lat": 42.71126982964926,
    "lon": -73.56908141340327,
    "counts": {
      "trucks": 15,
      "trailers": 53,
      "guardShacks": 2,
      "gates": 4,
      "trailerYards": 4,
      "dropDocks": 14,
      "inboundLanes": 4,
      "outboundLanes": 5
    },
    "updatedAt": "2025-12-12T03:54:13.546Z"
  },
  {
    "id": "F0153",
    "name": "Jacksonville Plant 2",
    "brand": "Deer Park",
    "facilityType": "Plant",
    "status": "Flow",
    "address": "651 Industrial Blvd",
    "city": "Jacksonville",
    "state": "FL",
    "lat": 30.169836532153738,
    "lon": -81.48868723793314,
    "counts": {
      "trucks": 82,
      "trailers": 182,
      "guardShacks": 3,
      "gates": 5,
      "trailerYards": 3,
      "dropDocks": 12,
      "inboundLanes": 10,
      "outboundLanes": 6
    },
    "updatedAt": "2025-11-21T03:54:13.546Z"
  },
  {
    "id": "F0154",
    "name": "Birmingham Yard 2",
    "brand": "Pure Life",
    "facilityType": "Yard",
    "status": "Flow",
    "address": "8609 Industrial Blvd",
    "city": "Birmingham",
    "state": "AL",
    "lat": 33.27419482705405,
    "lon": -86.81511138065274,
    "counts": {
      "trucks": 13,
      "trailers": 66,
      "guardShacks": 3,
      "gates": 3,
      "trailerYards": 5,
      "dropDocks": 17,
      "inboundLanes": 11,
      "outboundLanes": 10
    },
    "updatedAt": "2025-11-21T03:54:13.546Z"
  },
  {
    "id": "F0155",
    "name": "Grand Rapids Terminal 2",
    "brand": "Arrowhead",
    "facilityType": "Terminal",
    "status": "Flow",
    "address": "3970 Industrial Blvd",
    "city": "Grand Rapids",
    "state": "MI",
    "lat": 43.16813651427237,
    "lon": -85.8773941539804,
    "counts": {
      "trucks": 46,
      "trailers": 13,
      "guardShacks": 2,
      "gates": 2,
      "trailerYards": 4,
      "dropDocks": 6,
      "inboundLanes": 7,
      "outboundLanes": 9
    },
    "updatedAt": "2025-12-08T03:54:13.546Z"
  },
  {
    "id": "F0156",
    "name": "Oakland DC 2",
    "brand": "Zephyrhills",
    "facilityType": "DC",
    "status": "Flow",
    "address": "3283 Industrial Blvd",
    "city": "Oakland",
    "state": "CA",
    "lat": 37.6742926686543,
    "lon": -122.47668902522,
    "counts": {
      "trucks": 71,
      "trailers": 96,
      "guardShacks": 3,
      "gates": 6,
      "trailerYards": 4,
      "dropDocks": 16,
      "inboundLanes": 8,
      "outboundLanes": 12
    },
    "updatedAt": "2025-12-05T03:54:13.546Z"
  },
  {
    "id": "F0157",
    "name": "Dayton Plant 2",
    "brand": "Ozarka",
    "facilityType": "Plant",
    "status": "Flow",
    "address": "1162 Industrial Blvd",
    "city": "Dayton",
    "state": "OH",
    "lat": 39.90130328157211,
    "lon": -84.06386650534375,
    "counts": {
      "trucks": 90,
      "trailers": 70,
      "guardShacks": 4,
      "gates": 3,
      "trailerYards": 2,
      "dropDocks": 8,
      "inboundLanes": 11,
      "outboundLanes": 8
    },
    "updatedAt": "2025-11-22T03:54:13.546Z"
  },
  {
    "id": "F0158",
    "name": "Nashville CrossDock 2",
    "brand": "Crystal Springs",
    "facilityType": "CrossDock",
    "status": "Flow",
    "address": "1375 Industrial Blvd",
    "city": "Nashville",
    "state": "TN",
    "lat": 35.98782240476717,
    "lon": -86.57957620931549,
    "counts": {
      "trucks": 29,
      "trailers": 75,
      "guardShacks": 3,
      "gates": 8,
      "trailerYards": 5,
      "dropDocks": 20,
      "inboundLanes": 6,
      "outboundLanes": 9
    },
    "updatedAt": "2025-11-27T03:54:13.546Z"
  },
  {
    "id": "F0159",
    "name": "Peoria Plant 2",
    "brand": "Ozarka",
    "facilityType": "Plant",
    "status": "Flow",
    "address": "6035 Industrial Blvd",
    "city": "Peoria",
    "state": "IL",
    "lat": 40.4705321724943,
    "lon": -89.5613358896099,
    "counts": {
      "trucks": 66,
      "trailers": 78,
      "guardShacks": 4,
      "gates": 4,
      "trailerYards": 1,
      "dropDocks": 18,
      "inboundLanes": 12,
      "outboundLanes": 12
    },
    "updatedAt": "2025-11-19T03:54:13.546Z"
  },
  {
    "id": "F0160",
    "name": "Indianapolis Terminal 2",
    "brand": "Sparkletts",
    "facilityType": "Terminal",
    "status": "Activating",
    "address": "677 Industrial Blvd",
    "city": "Indianapolis",
    "state": "IN",
    "lat": 39.74148055714711,
    "lon": -85.92159415238838,
    "counts": {
      "trucks": 52,
      "trailers": 48,
      "guardShacks": 2,
      "gates": 3,
      "trailerYards": 2,
      "dropDocks": 5,
      "inboundLanes": 8,
      "outboundLanes": 11
    },
    "notes": "Onboarding in progress",
    "updatedAt": "2025-11-23T03:54:13.546Z"
  },
  {
    "id": "F0161",
    "name": "El Paso Terminal 2",
    "brand": "Crystal Springs",
    "facilityType": "Terminal",
    "status": "Activating",
    "address": "1509 Industrial Blvd",
    "city": "El Paso",
    "state": "TX",
    "lat": 31.526232497868964,
    "lon": -106.55363409220455,
    "counts": {
      "trucks": 10,
      "trailers": 94,
      "guardShacks": 3,
      "gates": 5,
      "trailerYards": 4,
      "dropDocks": 11,
      "inboundLanes": 2,
      "outboundLanes": 4
    },
    "notes": "Onboarding in progress",
    "updatedAt": "2025-12-16T03:54:13.546Z"
  },
  {
    "id": "F0162",
    "name": "Greenville Terminal 2",
    "brand": "Zephyrhills",
    "facilityType": "Terminal",
    "status": "Chaos",
    "address": "6246 Industrial Blvd",
    "city": "Greenville",
    "state": "SC",
    "lat": 34.96365324006076,
    "lon": -82.45118435574,
    "counts": {
      "trucks": 23,
      "trailers": 53,
      "guardShacks": 4,
      "gates": 7,
      "trailerYards": 1,
      "dropDocks": 17,
      "inboundLanes": 5,
      "outboundLanes": 3
    },
    "notes": "System integration pending",
    "updatedAt": "2025-11-22T03:54:13.546Z"
  },
  {
    "id": "F0163",
    "name": "Kansas City Plant 2",
    "brand": "Primo",
    "facilityType": "Plant",
    "status": "Flow",
    "address": "2485 Industrial Blvd",
    "city": "Kansas City",
    "state": "MO",
    "lat": 38.94186580831389,
    "lon": -94.39660136319361,
    "counts": {
      "trucks": 74,
      "trailers": 170,
      "guardShacks": 3,
      "gates": 7,
      "trailerYards": 2,
      "dropDocks": 20,
      "inboundLanes": 11,
      "outboundLanes": 4
    },
    "updatedAt": "2025-11-19T03:54:13.546Z"
  },
  {
    "id": "F0164",
    "name": "Buffalo CrossDock 2",
    "brand": "Poland Spring",
    "facilityType": "CrossDock",
    "status": "Activating",
    "address": "5084 Industrial Blvd",
    "city": "Buffalo",
    "state": "NY",
    "lat": 42.74796277833436,
    "lon": -78.63720699298932,
    "counts": {
      "trucks": 45,
      "trailers": 59,
      "guardShacks": 4,
      "gates": 7,
      "trailerYards": 5,
      "dropDocks": 12,
      "inboundLanes": 10,
      "outboundLanes": 4
    },
    "notes": "Onboarding in progress",
    "updatedAt": "2025-11-23T03:54:13.546Z"
  },
  {
    "id": "F0165",
    "name": "Spokane Yard 2",
    "brand": "Primo",
    "facilityType": "Yard",
    "status": "Flow",
    "address": "5789 Industrial Blvd",
    "city": "Spokane",
    "state": "WA",
    "lat": 47.89694020786767,
    "lon": -117.62158615193182,
    "counts": {
      "trucks": 50,
      "trailers": 75,
      "guardShacks": 4,
      "gates": 4,
      "trailerYards": 3,
      "dropDocks": 12,
      "inboundLanes": 3,
      "outboundLanes": 2
    },
    "updatedAt": "2025-12-14T03:54:13.546Z"
  },
  {
    "id": "F0166",
    "name": "St. Louis Plant 2",
    "brand": "Sparkletts",
    "facilityType": "Plant",
    "status": "Activating",
    "address": "1089 Industrial Blvd",
    "city": "St. Louis",
    "state": "MO",
    "lat": 38.852330219498576,
    "lon": -90.10062930353027,
    "counts": {
      "trucks": 28,
      "trailers": 34,
      "guardShacks": 4,
      "gates": 7,
      "trailerYards": 5,
      "dropDocks": 4,
      "inboundLanes": 5,
      "outboundLanes": 10
    },
    "notes": "Onboarding in progress",
    "updatedAt": "2025-12-07T03:54:13.546Z"
  },
  {
    "id": "F0167",
    "name": "Cleveland Yard 2",
    "brand": "Ozarka",
    "facilityType": "Yard",
    "status": "Flow",
    "address": "2599 Industrial Blvd",
    "city": "Cleveland",
    "state": "OH",
    "lat": 41.56151609415888,
    "lon": -81.72479409892063,
    "counts": {
      "trucks": 35,
      "trailers": 40,
      "guardShacks": 2,
      "gates": 6,
      "trailerYards": 1,
      "dropDocks": 7,
      "inboundLanes": 5,
      "outboundLanes": 12
    },
    "updatedAt": "2025-12-11T03:54:13.546Z"
  },
  {
    "id": "F0168",
    "name": "Austin DC 2",
    "brand": "Deer Park",
    "facilityType": "DC",
    "status": "Flow",
    "address": "8522 Industrial Blvd",
    "city": "Austin",
    "state": "TX",
    "lat": 30.234545045654723,
    "lon": -97.97442537528636,
    "counts": {
      "trucks": 33,
      "trailers": 80,
      "guardShacks": 3,
      "gates": 7,
      "trailerYards": 3,
      "dropDocks": 5,
      "inboundLanes": 3,
      "outboundLanes": 12
    },
    "updatedAt": "2025-12-14T03:54:13.546Z"
  },
  {
    "id": "F0169",
    "name": "Portland DC 2",
    "brand": "Crystal Springs",
    "facilityType": "DC",
    "status": "Flow",
    "address": "6412 Industrial Blvd",
    "city": "Portland",
    "state": "OR",
    "lat": 45.73139072388861,
    "lon": -122.74990105018526,
    "counts": {
      "trucks": 69,
      "trailers": 38,
      "guardShacks": 2,
      "gates": 2,
      "trailerYards": 2,
      "dropDocks": 5,
      "inboundLanes": 4,
      "outboundLanes": 11
    },
    "updatedAt": "2025-11-25T03:54:13.546Z"
  },
  {
    "id": "F0170",
    "name": "Sioux Falls Yard 2",
    "brand": "Pure Life",
    "facilityType": "Yard",
    "status": "Activating",
    "address": "9248 Industrial Blvd",
    "city": "Sioux Falls",
    "state": "SD",
    "lat": 43.681386784867584,
    "lon": -96.60714277130322,
    "counts": {
      "trucks": 30,
      "trailers": 44,
      "guardShacks": 4,
      "gates": 8,
      "trailerYards": 4,
      "dropDocks": 10,
      "inboundLanes": 2,
      "outboundLanes": 5
    },
    "notes": "Onboarding in progress",
    "updatedAt": "2025-12-07T03:54:13.546Z"
  },
  {
    "id": "F0171",
    "name": "Albuquerque Terminal 2",
    "brand": "Crystal Springs",
    "facilityType": "Terminal",
    "status": "Chaos",
    "address": "7984 Industrial Blvd",
    "city": "Albuquerque",
    "state": "NM",
    "lat": 35.322906688333475,
    "lon": -106.7906370907681,
    "counts": {
      "trucks": 40,
      "trailers": 91,
      "guardShacks": 4,
      "gates": 5,
      "trailerYards": 5,
      "dropDocks": 5,
      "inboundLanes": 9,
      "outboundLanes": 7
    },
    "notes": "System integration pending",
    "updatedAt": "2025-11-28T03:54:13.546Z"
  },
  {
    "id": "F0172",
    "name": "Memphis Plant 2",
    "brand": "Sparkletts",
    "facilityType": "Plant",
    "status": "Flow",
    "address": "9309 Industrial Blvd",
    "city": "Memphis",
    "state": "TN",
    "lat": 35.057805096520966,
    "lon": -90.00300572190375,
    "counts": {
      "trucks": 90,
      "trailers": 192,
      "guardShacks": 4,
      "gates": 8,
      "trailerYards": 4,
      "dropDocks": 13,
      "inboundLanes": 8,
      "outboundLanes": 6
    },
    "updatedAt": "2025-12-14T03:54:13.546Z"
  },
  {
    "id": "F0173",
    "name": "Cincinnati DC 2",
    "brand": "Deer Park",
    "facilityType": "DC",
    "status": "Flow",
    "address": "6493 Industrial Blvd",
    "city": "Cincinnati",
    "state": "OH",
    "lat": 39.037040412394575,
    "lon": -84.28592352953484,
    "counts": {
      "trucks": 69,
      "trailers": 120,
      "guardShacks": 3,
      "gates": 7,
      "trailerYards": 2,
      "dropDocks": 20,
      "inboundLanes": 4,
      "outboundLanes": 2
    },
    "updatedAt": "2025-11-23T03:54:13.546Z"
  },
  {
    "id": "F0174",
    "name": "Pittsburgh DC 2",
    "brand": "Primo",
    "facilityType": "DC",
    "status": "Flow",
    "address": "1908 Industrial Blvd",
    "city": "Pittsburgh",
    "state": "PA",
    "lat": 40.53577264427132,
    "lon": -80.13631790783575,
    "counts": {
      "trucks": 57,
      "trailers": 90,
      "guardShacks": 1,
      "gates": 7,
      "trailerYards": 5,
      "dropDocks": 7,
      "inboundLanes": 12,
      "outboundLanes": 11
    },
    "updatedAt": "2025-11-27T03:54:13.546Z"
  },
  {
    "id": "F0175",
    "name": "Savannah Yard 2",
    "brand": "Arrowhead",
    "facilityType": "Yard",
    "status": "Flow",
    "address": "8591 Industrial Blvd",
    "city": "Savannah",
    "state": "GA",
    "lat": 31.912940645088455,
    "lon": -80.91979997672267,
    "counts": {
      "trucks": 31,
      "trailers": 23,
      "guardShacks": 3,
      "gates": 8,
      "trailerYards": 3,
      "dropDocks": 11,
      "inboundLanes": 8,
      "outboundLanes": 9
    },
    "updatedAt": "2025-12-08T03:54:13.546Z"
  },
  {
    "id": "F0176",
    "name": "Lexington Yard 2",
    "brand": "Primo",
    "facilityType": "Yard",
    "status": "Flow",
    "address": "9662 Industrial Blvd",
    "city": "Lexington",
    "state": "KY",
    "lat": 38.0191514975124,
    "lon": -84.2749756943929,
    "counts": {
      "trucks": 11,
      "trailers": 75,
      "guardShacks": 4,
      "gates": 2,
      "trailerYards": 5,
      "dropDocks": 20,
      "inboundLanes": 6,
      "outboundLanes": 9
    },
    "updatedAt": "2025-11-30T03:54:13.546Z"
  },
  {
    "id": "F0177",
    "name": "Phoenix Plant 2",
    "brand": "Sparkletts",
    "facilityType": "Plant",
    "status": "Flow",
    "address": "6880 Industrial Blvd",
    "city": "Phoenix",
    "state": "AZ",
    "lat": 33.32025664125445,
    "lon": -112.1550140355743,
    "counts": {
      "trucks": 84,
      "trailers": 98,
      "guardShacks": 3,
      "gates": 7,
      "trailerYards": 4,
      "dropDocks": 13,
      "inboundLanes": 7,
      "outboundLanes": 8
    },
    "updatedAt": "2025-12-01T03:54:13.546Z"
  },
  {
    "id": "F0178",
    "name": "Chicago CrossDock 2",
    "brand": "Zephyrhills",
    "facilityType": "CrossDock",
    "status": "Flow",
    "address": "2586 Industrial Blvd",
    "city": "Chicago",
    "state": "IL",
    "lat": 42.07330267991766,
    "lon": -87.61273496705583,
    "counts": {
      "trucks": 5,
      "trailers": 89,
      "guardShacks": 1,
      "gates": 3,
      "trailerYards": 2,
      "dropDocks": 5,
      "inboundLanes": 4,
      "outboundLanes": 11
    },
    "updatedAt": "2025-12-11T03:54:13.546Z"
  },
  {
    "id": "F0179",
    "name": "Milwaukee CrossDock 2",
    "brand": "Deer Park",
    "facilityType": "CrossDock",
    "status": "Flow",
    "address": "1356 Industrial Blvd",
    "city": "Milwaukee",
    "state": "WI",
    "lat": 43.13361985281652,
    "lon": -87.84774737272568,
    "counts": {
      "trucks": 44,
      "trailers": 77,
      "guardShacks": 3,
      "gates": 6,
      "trailerYards": 3,
      "dropDocks": 14,
      "inboundLanes": 7,
      "outboundLanes": 12
    },
    "updatedAt": "2025-11-21T03:54:13.546Z"
  },
  {
    "id": "F0180",
    "name": "Amarillo Plant 2",
    "brand": "Poland Spring",
    "facilityType": "Plant",
    "status": "Flow",
    "address": "6161 Industrial Blvd",
    "city": "Amarillo",
    "state": "TX",
    "lat": 35.375142442386526,
    "lon": -101.6218784231234,
    "counts": {
      "trucks": 52,
      "trailers": 76,
      "guardShacks": 3,
      "gates": 4,
      "trailerYards": 2,
      "dropDocks": 12,
      "inboundLanes": 10,
      "outboundLanes": 12
    },
    "updatedAt": "2025-12-14T03:54:13.546Z"
  },
  {
    "id": "F0181",
    "name": "Columbia CrossDock 3",
    "brand": "Sparkletts",
    "facilityType": "CrossDock",
    "status": "Chaos",
    "address": "4539 Industrial Blvd",
    "city": "Columbia",
    "state": "SC",
    "lat": 34.05971641641458,
    "lon": -81.25132945062215,
    "counts": {
      "trucks": 23,
      "trailers": 12,
      "guardShacks": 3,
      "gates": 4,
      "trailerYards": 1,
      "dropDocks": 20,
      "inboundLanes": 10,
      "outboundLanes": 6
    },
    "notes": "System integration pending",
    "updatedAt": "2025-12-06T03:54:13.546Z"
  },
  {
    "id": "F0182",
    "name": "Madison Terminal 3",
    "brand": "Deer Park",
    "facilityType": "Terminal",
    "status": "Activating",
    "address": "1178 Industrial Blvd",
    "city": "Madison",
    "state": "WI",
    "lat": 42.9033981145423,
    "lon": -89.30926609529728,
    "counts": {
      "trucks": 25,
      "trailers": 114,
      "guardShacks": 2,
      "gates": 2,
      "trailerYards": 4,
      "dropDocks": 10,
      "inboundLanes": 9,
      "outboundLanes": 3
    },
    "notes": "Onboarding in progress",
    "updatedAt": "2025-12-06T03:54:13.547Z"
  },
  {
    "id": "F0183",
    "name": "Sacramento DC 3",
    "brand": "Ice Mountain",
    "facilityType": "DC",
    "status": "Activating",
    "address": "1529 Industrial Blvd",
    "city": "Sacramento",
    "state": "CA",
    "lat": 38.44923327132849,
    "lon": -121.70667205349066,
    "counts": {
      "trucks": 11,
      "trailers": 116,
      "guardShacks": 4,
      "gates": 2,
      "trailerYards": 5,
      "dropDocks": 8,
      "inboundLanes": 2,
      "outboundLanes": 10
    },
    "notes": "Onboarding in progress",
    "updatedAt": "2025-11-19T03:54:13.547Z"
  },
  {
    "id": "F0184",
    "name": "South Bend CrossDock 3",
    "brand": "Sparkletts",
    "facilityType": "CrossDock",
    "status": "Flow",
    "address": "3984 Industrial Blvd",
    "city": "South Bend",
    "state": "IN",
    "lat": 41.87798167266163,
    "lon": -86.26955676442984,
    "counts": {
      "trucks": 42,
      "trailers": 63,
      "guardShacks": 2,
      "gates": 4,
      "trailerYards": 5,
      "dropDocks": 9,
      "inboundLanes": 12,
      "outboundLanes": 4
    },
    "updatedAt": "2025-12-02T03:54:13.547Z"
  },
  {
    "id": "F0185",
    "name": "Mobile Plant 3",
    "brand": "Primo",
    "facilityType": "Plant",
    "status": "Flow",
    "address": "5522 Industrial Blvd",
    "city": "Mobile",
    "state": "AL",
    "lat": 30.48605209854116,
    "lon": -87.84861330824721,
    "counts": {
      "trucks": 84,
      "trailers": 22,
      "guardShacks": 3,
      "gates": 6,
      "trailerYards": 2,
      "dropDocks": 17,
      "inboundLanes": 12,
      "outboundLanes": 4
    },
    "updatedAt": "2025-11-21T03:54:13.547Z"
  },
  {
    "id": "F0186",
    "name": "Des Moines CrossDock 3",
    "brand": "Pure Life",
    "facilityType": "CrossDock",
    "status": "Flow",
    "address": "8030 Industrial Blvd",
    "city": "Des Moines",
    "state": "IA",
    "lat": 41.37568470601299,
    "lon": -93.59908391950194,
    "counts": {
      "trucks": 46,
      "trailers": 55,
      "guardShacks": 4,
      "gates": 4,
      "trailerYards": 1,
      "dropDocks": 6,
      "inboundLanes": 9,
      "outboundLanes": 9
    },
    "updatedAt": "2025-11-23T03:54:13.547Z"
  },
  {
    "id": "F0187",
    "name": "Toledo DC 3",
    "brand": "Deer Park",
    "facilityType": "DC",
    "status": "Activating",
    "address": "4955 Industrial Blvd",
    "city": "Toledo",
    "state": "OH",
    "lat": 41.8994280653166,
    "lon": -83.49893658145466,
    "counts": {
      "trucks": 21,
      "trailers": 68,
      "guardShacks": 4,
      "gates": 8,
      "trailerYards": 3,
      "dropDocks": 18,
      "inboundLanes": 12,
      "outboundLanes": 10
    },
    "notes": "Onboarding in progress",
    "updatedAt": "2025-12-08T03:54:13.547Z"
  },
  {
    "id": "F0188",
    "name": "Denver Plant 3",
    "brand": "Deer Park",
    "facilityType": "Plant",
    "status": "Flow",
    "address": "4147 Industrial Blvd",
    "city": "Denver",
    "state": "CO",
    "lat": 39.71022580202863,
    "lon": -104.81717901269833,
    "counts": {
      "trucks": 56,
      "trailers": 200,
      "guardShacks": 2,
      "gates": 2,
      "trailerYards": 2,
      "dropDocks": 7,
      "inboundLanes": 2,
      "outboundLanes": 2
    },
    "updatedAt": "2025-12-14T03:54:13.547Z"
  },
  {
    "id": "F0189",
    "name": "Corpus Christi DC 3",
    "brand": "Ice Mountain",
    "facilityType": "DC",
    "status": "Flow",
    "address": "2781 Industrial Blvd",
    "city": "Corpus Christi",
    "state": "TX",
    "lat": 27.687527707714676,
    "lon": -97.57449669151484,
    "counts": {
      "trucks": 26,
      "trailers": 143,
      "guardShacks": 1,
      "gates": 2,
      "trailerYards": 1,
      "dropDocks": 4,
      "inboundLanes": 11,
      "outboundLanes": 11
    },
    "updatedAt": "2025-12-04T03:54:13.547Z"
  },
  {
    "id": "F0190",
    "name": "Tucson Terminal 3",
    "brand": "Pure Life",
    "facilityType": "Terminal",
    "status": "Flow",
    "address": "3814 Industrial Blvd",
    "city": "Tucson",
    "state": "AZ",
    "lat": 32.064912039226726,
    "lon": -110.79433260535303,
    "counts": {
      "trucks": 21,
      "trailers": 113,
      "guardShacks": 1,
      "gates": 3,
      "trailerYards": 1,
      "dropDocks": 15,
      "inboundLanes": 11,
      "outboundLanes": 7
    },
    "updatedAt": "2025-11-21T03:54:13.547Z"
  },
  {
    "id": "F0191",
    "name": "Lubbock Terminal 3",
    "brand": "Arrowhead",
    "facilityType": "Terminal",
    "status": "Flow",
    "address": "8949 Industrial Blvd",
    "city": "Lubbock",
    "state": "TX",
    "lat": 33.561227351633306,
    "lon": -102.0556335889842,
    "counts": {
      "trucks": 38,
      "trailers": 60,
      "guardShacks": 4,
      "gates": 8,
      "trailerYards": 5,
      "dropDocks": 5,
      "inboundLanes": 8,
      "outboundLanes": 6
    },
    "updatedAt": "2025-11-28T03:54:13.547Z"
  },
  {
    "id": "F0192",
    "name": "Cedar Rapids DC 3",
    "brand": "Pure Life",
    "facilityType": "DC",
    "status": "Activating",
    "address": "2138 Industrial Blvd",
    "city": "Cedar Rapids",
    "state": "IA",
    "lat": 41.87364025856018,
    "lon": -91.45634979144201,
    "counts": {
      "trucks": 75,
      "trailers": 35,
      "guardShacks": 2,
      "gates": 7,
      "trailerYards": 5,
      "dropDocks": 10,
      "inboundLanes": 2,
      "outboundLanes": 12
    },
    "notes": "Onboarding in progress",
    "updatedAt": "2025-11-26T03:54:13.547Z"
  },
  {
    "id": "F0193",
    "name": "Laredo CrossDock 3",
    "brand": "Ice Mountain",
    "facilityType": "CrossDock",
    "status": "Flow",
    "address": "9285 Industrial Blvd",
    "city": "Laredo",
    "state": "TX",
    "lat": 27.494166098903356,
    "lon": -99.28543726595018,
    "counts": {
      "trucks": 7,
      "trailers": 64,
      "guardShacks": 4,
      "gates": 2,
      "trailerYards": 2,
      "dropDocks": 13,
      "inboundLanes": 7,
      "outboundLanes": 5
    },
    "updatedAt": "2025-11-20T03:54:13.547Z"
  },
  {
    "id": "F0194",
    "name": "Fargo DC 3",
    "brand": "Crystal Springs",
    "facilityType": "DC",
    "status": "Flow",
    "address": "1554 Industrial Blvd",
    "city": "Fargo",
    "state": "ND",
    "lat": 47.04481559432462,
    "lon": -96.80413858432574,
    "counts": {
      "trucks": 32,
      "trailers": 143,
      "guardShacks": 4,
      "gates": 8,
      "trailerYards": 1,
      "dropDocks": 14,
      "inboundLanes": 10,
      "outboundLanes": 11
    },
    "updatedAt": "2025-12-13T03:54:13.547Z"
  },
  {
    "id": "F0195",
    "name": "San Jose Terminal 3",
    "brand": "Deer Park",
    "facilityType": "Terminal",
    "status": "Flow",
    "address": "1296 Industrial Blvd",
    "city": "San Jose",
    "state": "CA",
    "lat": 37.34041801131784,
    "lon": -121.83135396391424,
    "counts": {
      "trucks": 20,
      "trailers": 82,
      "guardShacks": 2,
      "gates": 2,
      "trailerYards": 3,
      "dropDocks": 10,
      "inboundLanes": 4,
      "outboundLanes": 4
    },
    "updatedAt": "2025-11-21T03:54:13.547Z"
  },
  {
    "id": "F0196",
    "name": "Riverside DC 3",
    "brand": "Sparkletts",
    "facilityType": "DC",
    "status": "Flow",
    "address": "5111 Industrial Blvd",
    "city": "Riverside",
    "state": "CA",
    "lat": 34.15721269036171,
    "lon": -117.20750625744553,
    "counts": {
      "trucks": 29,
      "trailers": 32,
      "guardShacks": 2,
      "gates": 8,
      "trailerYards": 5,
      "dropDocks": 8,
      "inboundLanes": 9,
      "outboundLanes": 5
    },
    "updatedAt": "2025-12-05T03:54:13.547Z"
  },
  {
    "id": "F0197",
    "name": "Syracuse DC 3",
    "brand": "Ozarka",
    "facilityType": "DC",
    "status": "Chaos",
    "address": "4457 Industrial Blvd",
    "city": "Syracuse",
    "state": "NY",
    "lat": 42.989199308323826,
    "lon": -76.21024265427712,
    "counts": {
      "trucks": 74,
      "trailers": 149,
      "guardShacks": 1,
      "gates": 3,
      "trailerYards": 1,
      "dropDocks": 12,
      "inboundLanes": 10,
      "outboundLanes": 11
    },
    "notes": "System integration pending",
    "updatedAt": "2025-12-11T03:54:13.547Z"
  },
  {
    "id": "F0198",
    "name": "Atlanta Yard 3",
    "brand": "Poland Spring",
    "facilityType": "Yard",
    "status": "Flow",
    "address": "3514 Industrial Blvd",
    "city": "Atlanta",
    "state": "GA",
    "lat": 33.994583975543016,
    "lon": -84.55502067725055,
    "counts": {
      "trucks": 5,
      "trailers": 100,
      "guardShacks": 4,
      "gates": 2,
      "trailerYards": 5,
      "dropDocks": 10,
      "inboundLanes": 8,
      "outboundLanes": 6
    },
    "updatedAt": "2025-11-30T03:54:13.547Z"
  },
  {
    "id": "F0199",
    "name": "Green Bay CrossDock 3",
    "brand": "Primo",
    "facilityType": "CrossDock",
    "status": "Flow",
    "address": "3165 Industrial Blvd",
    "city": "Green Bay",
    "state": "WI",
    "lat": 44.68835014877088,
    "lon": -88.10442258543974,
    "counts": {
      "trucks": 17,
      "trailers": 35,
      "guardShacks": 2,
      "gates": 8,
      "trailerYards": 4,
      "dropDocks": 20,
      "inboundLanes": 9,
      "outboundLanes": 2
    },
    "updatedAt": "2025-12-07T03:54:13.547Z"
  },
  {
    "id": "F0200",
    "name": "Los Angeles Terminal 3",
    "brand": "Deer Park",
    "facilityType": "Terminal",
    "status": "Flow",
    "address": "811 Industrial Blvd",
    "city": "Los Angeles",
    "state": "CA",
    "lat": 33.95431908496212,
    "lon": -118.4379082726232,
    "counts": {
      "trucks": 22,
      "trailers": 114,
      "guardShacks": 2,
      "gates": 3,
      "trailerYards": 3,
      "dropDocks": 13,
      "inboundLanes": 4,
      "outboundLanes": 4
    },
    "updatedAt": "2025-11-24T03:54:13.547Z"
  },
  {
    "id": "F0201",
    "name": "Newark CrossDock 3",
    "brand": "Zephyrhills",
    "facilityType": "CrossDock",
    "status": "Flow",
    "address": "4770 Industrial Blvd",
    "city": "Newark",
    "state": "NJ",
    "lat": 40.58416897121497,
    "lon": -73.98129393646975,
    "counts": {
      "trucks": 23,
      "trailers": 28,
      "guardShacks": 1,
      "gates": 4,
      "trailerYards": 2,
      "dropDocks": 16,
      "inboundLanes": 9,
      "outboundLanes": 5
    },
    "updatedAt": "2025-11-30T03:54:13.547Z"
  },
  {
    "id": "F0202",
    "name": "Charlotte Plant 3",
    "brand": "Ozarka",
    "facilityType": "Plant",
    "status": "Flow",
    "address": "3136 Industrial Blvd",
    "city": "Charlotte",
    "state": "NC",
    "lat": 35.30625915229296,
    "lon": -80.9979120911134,
    "counts": {
      "trucks": 78,
      "trailers": 178,
      "guardShacks": 2,
      "gates": 8,
      "trailerYards": 2,
      "dropDocks": 5,
      "inboundLanes": 7,
      "outboundLanes": 8
    },
    "updatedAt": "2025-11-30T03:54:13.547Z"
  },
  {
    "id": "F0203",
    "name": "Rockford Plant 3",
    "brand": "Primo",
    "facilityType": "Plant",
    "status": "Flow",
    "address": "6939 Industrial Blvd",
    "city": "Rockford",
    "state": "IL",
    "lat": 42.085515330272365,
    "lon": -89.26687360258705,
    "counts": {
      "trucks": 70,
      "trailers": 120,
      "guardShacks": 4,
      "gates": 7,
      "trailerYards": 1,
      "dropDocks": 8,
      "inboundLanes": 4,
      "outboundLanes": 2
    },
    "updatedAt": "2025-12-09T03:54:13.547Z"
  },
  {
    "id": "F0204",
    "name": "Providence CrossDock 3",
    "brand": "Pure Life",
    "facilityType": "CrossDock",
    "status": "Chaos",
    "address": "7052 Industrial Blvd",
    "city": "Providence",
    "state": "RI",
    "lat": 41.61884699034367,
    "lon": -71.4946125679948,
    "counts": {
      "trucks": 14,
      "trailers": 99,
      "guardShacks": 1,
      "gates": 2,
      "trailerYards": 4,
      "dropDocks": 20,
      "inboundLanes": 11,
      "outboundLanes": 4
    },
    "notes": "System integration pending",
    "updatedAt": "2025-11-19T03:54:13.547Z"
  },
  {
    "id": "F0205",
    "name": "Fort Wayne DC 3",
    "brand": "Poland Spring",
    "facilityType": "DC",
    "status": "Flow",
    "address": "8263 Industrial Blvd",
    "city": "Fort Wayne",
    "state": "IN",
    "lat": 41.203627599945904,
    "lon": -84.94646492032618,
    "counts": {
      "trucks": 18,
      "trailers": 81,
      "guardShacks": 4,
      "gates": 5,
      "trailerYards": 3,
      "dropDocks": 5,
      "inboundLanes": 10,
      "outboundLanes": 5
    },
    "updatedAt": "2025-12-04T03:54:13.547Z"
  },
  {
    "id": "F0206",
    "name": "Boise CrossDock 3",
    "brand": "Crystal Springs",
    "facilityType": "CrossDock",
    "status": "Flow",
    "address": "6348 Industrial Blvd",
    "city": "Boise",
    "state": "ID",
    "lat": 43.809845306099525,
    "lon": -116.23249315393885,
    "counts": {
      "trucks": 38,
      "trailers": 17,
      "guardShacks": 3,
      "gates": 5,
      "trailerYards": 5,
      "dropDocks": 7,
      "inboundLanes": 9,
      "outboundLanes": 8
    },
    "updatedAt": "2025-11-24T03:54:13.547Z"
  },
  {
    "id": "F0207",
    "name": "Jackson DC 3",
    "brand": "Ice Mountain",
    "facilityType": "DC",
    "status": "Activating",
    "address": "8956 Industrial Blvd",
    "city": "Jackson",
    "state": "MS",
    "lat": 32.3791445204283,
    "lon": -90.41798094976548,
    "counts": {
      "trucks": 39,
      "trailers": 140,
      "guardShacks": 2,
      "gates": 3,
      "trailerYards": 1,
      "dropDocks": 9,
      "inboundLanes": 9,
      "outboundLanes": 5
    },
    "notes": "Onboarding in progress",
    "updatedAt": "2025-11-28T03:54:13.547Z"
  },
  {
    "id": "F0208",
    "name": "Louisville DC 3",
    "brand": "Deer Park",
    "facilityType": "DC",
    "status": "Flow",
    "address": "2964 Industrial Blvd",
    "city": "Louisville",
    "state": "KY",
    "lat": 38.45533650249228,
    "lon": -85.85835063549175,
    "counts": {
      "trucks": 74,
      "trailers": 53,
      "guardShacks": 3,
      "gates": 2,
      "trailerYards": 4,
      "dropDocks": 6,
      "inboundLanes": 4,
      "outboundLanes": 3
    },
    "updatedAt": "2025-12-04T03:54:13.547Z"
  },
  {
    "id": "F0209",
    "name": "Fresno Yard 3",
    "brand": "Sparkletts",
    "facilityType": "Yard",
    "status": "Flow",
    "address": "8787 Industrial Blvd",
    "city": "Fresno",
    "state": "CA",
    "lat": 36.58532490003939,
    "lon": -119.58146162887122,
    "counts": {
      "trucks": 50,
      "trailers": 79,
      "guardShacks": 3,
      "gates": 3,
      "trailerYards": 2,
      "dropDocks": 14,
      "inboundLanes": 2,
      "outboundLanes": 3
    },
    "updatedAt": "2025-12-08T03:54:13.547Z"
  },
  {
    "id": "F0210",
    "name": "Chattanooga Terminal 3",
    "brand": "Pure Life",
    "facilityType": "Terminal",
    "status": "Flow",
    "address": "6905 Industrial Blvd",
    "city": "Chattanooga",
    "state": "TN",
    "lat": 34.941696788947034,
    "lon": -85.36439566211583,
    "counts": {
      "trucks": 59,
      "trailers": 77,
      "guardShacks": 3,
      "gates": 3,
      "trailerYards": 4,
      "dropDocks": 6,
      "inboundLanes": 9,
      "outboundLanes": 12
    },
    "updatedAt": "2025-12-06T03:54:13.547Z"
  },
  {
    "id": "F0211",
    "name": "Dallas Terminal 3",
    "brand": "Zephyrhills",
    "facilityType": "Terminal",
    "status": "Flow",
    "address": "8244 Industrial Blvd",
    "city": "Dallas",
    "state": "TX",
    "lat": 32.83925045800935,
    "lon": -96.7308320507968,
    "counts": {
      "trucks": 27,
      "trailers": 126,
      "guardShacks": 4,
      "gates": 4,
      "trailerYards": 4,
      "dropDocks": 11,
      "inboundLanes": 2,
      "outboundLanes": 12
    },
    "updatedAt": "2025-12-10T03:54:13.547Z"
  },
  {
    "id": "F0212",
    "name": "Harrisburg Yard 3",
    "brand": "Deer Park",
    "facilityType": "Yard",
    "status": "Flow",
    "address": "5666 Industrial Blvd",
    "city": "Harrisburg",
    "state": "PA",
    "lat": 40.18434634962151,
    "lon": -76.90827432484546,
    "counts": {
      "trucks": 28,
      "trailers": 82,
      "guardShacks": 1,
      "gates": 2,
      "trailerYards": 5,
      "dropDocks": 16,
      "inboundLanes": 3,
      "outboundLanes": 7
    },
    "updatedAt": "2025-12-03T03:54:13.547Z"
  },
  {
    "id": "F0213",
    "name": "Raleigh CrossDock 3",
    "brand": "Primo",
    "facilityType": "CrossDock",
    "status": "Flow",
    "address": "9803 Industrial Blvd",
    "city": "Raleigh",
    "state": "NC",
    "lat": 35.54063753442135,
    "lon": -78.41638736559311,
    "counts": {
      "trucks": 15,
      "trailers": 50,
      "guardShacks": 1,
      "gates": 3,
      "trailerYards": 3,
      "dropDocks": 5,
      "inboundLanes": 7,
      "outboundLanes": 6
    },
    "updatedAt": "2025-12-18T03:54:13.547Z"
  },
  {
    "id": "F0214",
    "name": "Wichita Plant 3",
    "brand": "Primo",
    "facilityType": "Plant",
    "status": "Flow",
    "address": "9936 Industrial Blvd",
    "city": "Wichita",
    "state": "KS",
    "lat": 37.661509485657156,
    "lon": -97.35260928628968,
    "counts": {
      "trucks": 30,
      "trailers": 180,
      "guardShacks": 2,
      "gates": 2,
      "trailerYards": 5,
      "dropDocks": 6,
      "inboundLanes": 5,
      "outboundLanes": 11
    },
    "updatedAt": "2025-12-15T03:54:13.547Z"
  },
  {
    "id": "F0215",
    "name": "Houston Plant 3",
    "brand": "Crystal Springs",
    "facilityType": "Plant",
    "status": "Activating",
    "address": "8458 Industrial Blvd",
    "city": "Houston",
    "state": "TX",
    "lat": 29.55082711911643,
    "lon": -95.26391105878298,
    "counts": {
      "trucks": 84,
      "trailers": 128,
      "guardShacks": 4,
      "gates": 5,
      "trailerYards": 3,
      "dropDocks": 17,
      "inboundLanes": 3,
      "outboundLanes": 10
    },
    "notes": "Onboarding in progress",
    "updatedAt": "2025-12-07T03:54:13.547Z"
  },
  {
    "id": "F0216",
    "name": "Norfolk CrossDock 3",
    "brand": "Ice Mountain",
    "facilityType": "CrossDock",
    "status": "Flow",
    "address": "4650 Industrial Blvd",
    "city": "Norfolk",
    "state": "VA",
    "lat": 36.60511816500759,
    "lon": -76.06441837027265,
    "counts": {
      "trucks": 45,
      "trailers": 95,
      "guardShacks": 4,
      "gates": 8,
      "trailerYards": 3,
      "dropDocks": 9,
      "inboundLanes": 10,
      "outboundLanes": 8
    },
    "updatedAt": "2025-11-27T03:54:13.547Z"
  },
  {
    "id": "F0217",
    "name": "Akron CrossDock 3",
    "brand": "Ice Mountain",
    "facilityType": "CrossDock",
    "status": "Flow",
    "address": "5663 Industrial Blvd",
    "city": "Akron",
    "state": "OH",
    "lat": 41.217136219280604,
    "lon": -81.36809822954342,
    "counts": {
      "trucks": 12,
      "trailers": 35,
      "guardShacks": 3,
      "gates": 4,
      "trailerYards": 3,
      "dropDocks": 12,
      "inboundLanes": 11,
      "outboundLanes": 6
    },
    "updatedAt": "2025-11-24T03:54:13.547Z"
  },
  {
    "id": "F0218",
    "name": "Detroit Terminal 3",
    "brand": "Poland Spring",
    "facilityType": "Terminal",
    "status": "Activating",
    "address": "7729 Industrial Blvd",
    "city": "Detroit",
    "state": "MI",
    "lat": 42.129109590935485,
    "lon": -82.835903013514,
    "counts": {
      "trucks": 40,
      "trailers": 70,
      "guardShacks": 2,
      "gates": 6,
      "trailerYards": 1,
      "dropDocks": 7,
      "inboundLanes": 11,
      "outboundLanes": 6
    },
    "notes": "Onboarding in progress",
    "updatedAt": "2025-11-22T03:54:13.547Z"
  },
  {
    "id": "F0219",
    "name": "Little Rock CrossDock 3",
    "brand": "Poland Spring",
    "facilityType": "CrossDock",
    "status": "Flow",
    "address": "8433 Industrial Blvd",
    "city": "Little Rock",
    "state": "AR",
    "lat": 34.902292753007515,
    "lon": -92.29103669571866,
    "counts": {
      "trucks": 33,
      "trailers": 56,
      "guardShacks": 2,
      "gates": 2,
      "trailerYards": 2,
      "dropDocks": 11,
      "inboundLanes": 3,
      "outboundLanes": 7
    },
    "updatedAt": "2025-12-10T03:54:13.547Z"
  },
  {
    "id": "F0220",
    "name": "Springfield Yard 3",
    "brand": "Poland Spring",
    "facilityType": "Yard",
    "status": "Chaos",
    "address": "7785 Industrial Blvd",
    "city": "Springfield",
    "state": "MO",
    "lat": 37.135927900680514,
    "lon": -93.12500352498766,
    "counts": {
      "trucks": 29,
      "trailers": 46,
      "guardShacks": 4,
      "gates": 7,
      "trailerYards": 3,
      "dropDocks": 10,
      "inboundLanes": 4,
      "outboundLanes": 9
    },
    "notes": "System integration pending",
    "updatedAt": "2025-12-09T03:54:13.547Z"
  },
  {
    "id": "F0221",
    "name": "Tampa CrossDock 3",
    "brand": "Pure Life",
    "facilityType": "CrossDock",
    "status": "Flow",
    "address": "733 Industrial Blvd",
    "city": "Tampa",
    "state": "FL",
    "lat": 28.120431176236586,
    "lon": -82.66151865027422,
    "counts": {
      "trucks": 42,
      "trailers": 40,
      "guardShacks": 4,
      "gates": 4,
      "trailerYards": 5,
      "dropDocks": 20,
      "inboundLanes": 3,
      "outboundLanes": 7
    },
    "updatedAt": "2025-11-30T03:54:13.547Z"
  },
  {
    "id": "F0222",
    "name": "Orlando CrossDock 3",
    "brand": "Primo",
    "facilityType": "CrossDock",
    "status": "Flow",
    "address": "1960 Industrial Blvd",
    "city": "Orlando",
    "state": "FL",
    "lat": 28.473106575883385,
    "lon": -81.25120788709651,
    "counts": {
      "trucks": 21,
      "trailers": 22,
      "guardShacks": 3,
      "gates": 6,
      "trailerYards": 3,
      "dropDocks": 17,
      "inboundLanes": 10,
      "outboundLanes": 3
    },
    "updatedAt": "2025-11-28T03:54:13.547Z"
  },
  {
    "id": "F0223",
    "name": "Miami CrossDock 3",
    "brand": "Crystal Springs",
    "facilityType": "CrossDock",
    "status": "Activating",
    "address": "567 Industrial Blvd",
    "city": "Miami",
    "state": "FL",
    "lat": 25.93381416454029,
    "lon": -80.42703257935003,
    "counts": {
      "trucks": 9,
      "trailers": 62,
      "guardShacks": 1,
      "gates": 5,
      "trailerYards": 3,
      "dropDocks": 14,
      "inboundLanes": 9,
      "outboundLanes": 6
    },
    "notes": "Onboarding in progress",
    "updatedAt": "2025-12-01T03:54:13.547Z"
  },
  {
    "id": "F0224",
    "name": "Richmond CrossDock 3",
    "brand": "Crystal Springs",
    "facilityType": "CrossDock",
    "status": "Flow",
    "address": "8441 Industrial Blvd",
    "city": "Richmond",
    "state": "VA",
    "lat": 37.780593952684725,
    "lon": -77.43597196140067,
    "counts": {
      "trucks": 32,
      "trailers": 68,
      "guardShacks": 2,
      "gates": 2,
      "trailerYards": 5,
      "dropDocks": 11,
      "inboundLanes": 11,
      "outboundLanes": 6
    },
    "updatedAt": "2025-12-12T03:54:13.547Z"
  },
  {
    "id": "F0225",
    "name": "Salt Lake City Plant 3",
    "brand": "Primo",
    "facilityType": "Plant",
    "status": "Flow",
    "address": "3964 Industrial Blvd",
    "city": "Salt Lake City",
    "state": "UT",
    "lat": 40.65872323433722,
    "lon": -111.82438446817507,
    "counts": {
      "trucks": 100,
      "trailers": 62,
      "guardShacks": 4,
      "gates": 6,
      "trailerYards": 3,
      "dropDocks": 14,
      "inboundLanes": 5,
      "outboundLanes": 10
    },
    "updatedAt": "2025-12-02T03:54:13.547Z"
  },
  {
    "id": "F0226",
    "name": "Shreveport DC 3",
    "brand": "Primo",
    "facilityType": "DC",
    "status": "Activating",
    "address": "8518 Industrial Blvd",
    "city": "Shreveport",
    "state": "LA",
    "lat": 32.77255997169269,
    "lon": -93.789999248465,
    "counts": {
      "trucks": 20,
      "trailers": 108,
      "guardShacks": 2,
      "gates": 2,
      "trailerYards": 4,
      "dropDocks": 18,
      "inboundLanes": 4,
      "outboundLanes": 3
    },
    "notes": "Onboarding in progress",
    "updatedAt": "2025-11-25T03:54:13.547Z"
  },
  {
    "id": "F0227",
    "name": "Hartford DC 3",
    "brand": "Zephyrhills",
    "facilityType": "DC",
    "status": "Flow",
    "address": "712 Industrial Blvd",
    "city": "Hartford",
    "state": "CT",
    "lat": 41.55758479828715,
    "lon": -72.90313654479006,
    "counts": {
      "trucks": 48,
      "trailers": 83,
      "guardShacks": 4,
      "gates": 7,
      "trailerYards": 2,
      "dropDocks": 18,
      "inboundLanes": 3,
      "outboundLanes": 3
    },
    "updatedAt": "2025-11-24T03:54:13.547Z"
  },
  {
    "id": "F0228",
    "name": "Las Vegas Terminal 3",
    "brand": "Deer Park",
    "facilityType": "Terminal",
    "status": "Flow",
    "address": "781 Industrial Blvd",
    "city": "Las Vegas",
    "state": "NV",
    "lat": 36.08943931048738,
    "lon": -115.35716888240366,
    "counts": {
      "trucks": 65,
      "trailers": 61,
      "guardShacks": 1,
      "gates": 2,
      "trailerYards": 1,
      "dropDocks": 17,
      "inboundLanes": 10,
      "outboundLanes": 12
    },
    "updatedAt": "2025-12-19T03:54:13.547Z"
  },
  {
    "id": "F0229",
    "name": "Knoxville Plant 3",
    "brand": "Deer Park",
    "facilityType": "Plant",
    "status": "Flow",
    "address": "7421 Industrial Blvd",
    "city": "Knoxville",
    "state": "TN",
    "lat": 35.87968605133358,
    "lon": -83.81099629226115,
    "counts": {
      "trucks": 22,
      "trailers": 46,
      "guardShacks": 2,
      "gates": 3,
      "trailerYards": 1,
      "dropDocks": 17,
      "inboundLanes": 6,
      "outboundLanes": 7
    },
    "updatedAt": "2025-12-01T03:54:13.547Z"
  },
  {
    "id": "F0230",
    "name": "Tulsa Yard 3",
    "brand": "Poland Spring",
    "facilityType": "Yard",
    "status": "Flow",
    "address": "9058 Industrial Blvd",
    "city": "Tulsa",
    "state": "OK",
    "lat": 35.94408081081111,
    "lon": -96.14477203509979,
    "counts": {
      "trucks": 26,
      "trailers": 27,
      "guardShacks": 2,
      "gates": 5,
      "trailerYards": 3,
      "dropDocks": 18,
      "inboundLanes": 3,
      "outboundLanes": 6
    },
    "updatedAt": "2025-12-15T03:54:13.547Z"
  },
  {
    "id": "F0231",
    "name": "San Diego DC 3",
    "brand": "Primo",
    "facilityType": "DC",
    "status": "Flow",
    "address": "8279 Industrial Blvd",
    "city": "San Diego",
    "state": "CA",
    "lat": 32.65628099276822,
    "lon": -117.02046289028632,
    "counts": {
      "trucks": 71,
      "trailers": 92,
      "guardShacks": 4,
      "gates": 2,
      "trailerYards": 4,
      "dropDocks": 13,
      "inboundLanes": 12,
      "outboundLanes": 2
    },
    "updatedAt": "2025-11-30T03:54:13.547Z"
  },
  {
    "id": "F0232",
    "name": "San Antonio DC 3",
    "brand": "Ice Mountain",
    "facilityType": "DC",
    "status": "Flow",
    "address": "5333 Industrial Blvd",
    "city": "San Antonio",
    "state": "TX",
    "lat": 29.464247159856132,
    "lon": -98.37367987528613,
    "counts": {
      "trucks": 62,
      "trailers": 80,
      "guardShacks": 3,
      "gates": 5,
      "trailerYards": 1,
      "dropDocks": 10,
      "inboundLanes": 2,
      "outboundLanes": 2
    },
    "updatedAt": "2025-12-19T03:54:13.547Z"
  },
  {
    "id": "F0233",
    "name": "Charleston CrossDock 3",
    "brand": "Ice Mountain",
    "facilityType": "CrossDock",
    "status": "Flow",
    "address": "4803 Industrial Blvd",
    "city": "Charleston",
    "state": "SC",
    "lat": 32.54885409151399,
    "lon": -80.06929344671856,
    "counts": {
      "trucks": 16,
      "trailers": 14,
      "guardShacks": 1,
      "gates": 7,
      "trailerYards": 4,
      "dropDocks": 9,
      "inboundLanes": 2,
      "outboundLanes": 2
    },
    "updatedAt": "2025-11-20T03:54:13.547Z"
  },
  {
    "id": "F0234",
    "name": "New Orleans Plant 3",
    "brand": "Poland Spring",
    "facilityType": "Plant",
    "status": "Activating",
    "address": "4669 Industrial Blvd",
    "city": "New Orleans",
    "state": "LA",
    "lat": 29.981602615823935,
    "lon": -90.26762027223775,
    "counts": {
      "trucks": 22,
      "trailers": 92,
      "guardShacks": 4,
      "gates": 3,
      "trailerYards": 2,
      "dropDocks": 13,
      "inboundLanes": 12,
      "outboundLanes": 4
    },
    "notes": "Onboarding in progress",
    "updatedAt": "2025-11-30T03:54:13.547Z"
  },
  {
    "id": "F0235",
    "name": "Columbus CrossDock 3",
    "brand": "Poland Spring",
    "facilityType": "CrossDock",
    "status": "Activating",
    "address": "3397 Industrial Blvd",
    "city": "Columbus",
    "state": "OH",
    "lat": 40.15000649544826,
    "lon": -83.02315913305863,
    "counts": {
      "trucks": 18,
      "trailers": 74,
      "guardShacks": 1,
      "gates": 8,
      "trailerYards": 5,
      "dropDocks": 13,
      "inboundLanes": 7,
      "outboundLanes": 12
    },
    "notes": "Onboarding in progress",
    "updatedAt": "2025-11-21T03:54:13.547Z"
  },
  {
    "id": "F0236",
    "name": "Philadelphia Yard 3",
    "brand": "Zephyrhills",
    "facilityType": "Yard",
    "status": "Flow",
    "address": "9713 Industrial Blvd",
    "city": "Philadelphia",
    "state": "PA",
    "lat": 40.02494942390869,
    "lon": -75.02525644605745,
    "counts": {
      "trucks": 24,
      "trailers": 26,
      "guardShacks": 3,
      "gates": 4,
      "trailerYards": 4,
      "dropDocks": 18,
      "inboundLanes": 2,
      "outboundLanes": 10
    },
    "updatedAt": "2025-12-02T03:54:13.547Z"
  },
  {
    "id": "F0237",
    "name": "Fort Worth Terminal 3",
    "brand": "Deer Park",
    "facilityType": "Terminal",
    "status": "Chaos",
    "address": "7561 Industrial Blvd",
    "city": "Fort Worth",
    "state": "TX",
    "lat": 32.5080500660613,
    "lon": -97.32155046501548,
    "counts": {
      "trucks": 7,
      "trailers": 47,
      "guardShacks": 2,
      "gates": 7,
      "trailerYards": 4,
      "dropDocks": 18,
      "inboundLanes": 3,
      "outboundLanes": 11
    },
    "notes": "System integration pending",
    "updatedAt": "2025-11-28T03:54:13.547Z"
  },
  {
    "id": "F0238",
    "name": "Omaha Terminal 3",
    "brand": "Ozarka",
    "facilityType": "Terminal",
    "status": "Activating",
    "address": "9058 Industrial Blvd",
    "city": "Omaha",
    "state": "NE",
    "lat": 41.417402433456616,
    "lon": -95.7528987185921,
    "counts": {
      "trucks": 43,
      "trailers": 98,
      "guardShacks": 2,
      "gates": 2,
      "trailerYards": 5,
      "dropDocks": 4,
      "inboundLanes": 11,
      "outboundLanes": 11
    },
    "notes": "Onboarding in progress",
    "updatedAt": "2025-12-09T03:54:13.547Z"
  },
  {
    "id": "F0239",
    "name": "Boston Yard 3",
    "brand": "Deer Park",
    "facilityType": "Yard",
    "status": "Flow",
    "address": "5802 Industrial Blvd",
    "city": "Boston",
    "state": "MA",
    "lat": 42.335561684515724,
    "lon": -71.16533539391367,
    "counts": {
      "trucks": 28,
      "trailers": 15,
      "guardShacks": 1,
      "gates": 4,
      "trailerYards": 4,
      "dropDocks": 6,
      "inboundLanes": 9,
      "outboundLanes": 10
    },
    "updatedAt": "2025-11-26T03:54:13.547Z"
  },
  {
    "id": "F0240",
    "name": "Seattle CrossDock 3",
    "brand": "Primo",
    "facilityType": "CrossDock",
    "status": "Flow",
    "address": "5610 Industrial Blvd",
    "city": "Seattle",
    "state": "WA",
    "lat": 47.49440090721038,
    "lon": -122.15880849756095,
    "counts": {
      "trucks": 26,
      "trailers": 96,
      "guardShacks": 2,
      "gates": 5,
      "trailerYards": 3,
      "dropDocks": 9,
      "inboundLanes": 5,
      "outboundLanes": 4
    },
    "updatedAt": "2025-11-29T03:54:13.547Z"
  },
  {
    "id": "F0241",
    "name": "Minneapolis Plant 3",
    "brand": "Sparkletts",
    "facilityType": "Plant",
    "status": "Flow",
    "address": "3603 Industrial Blvd",
    "city": "Minneapolis",
    "state": "MN",
    "lat": 44.99974008987044,
    "lon": -93.44692618699254,
    "counts": {
      "trucks": 56,
      "trailers": 94,
      "guardShacks": 4,
      "gates": 3,
      "trailerYards": 4,
      "dropDocks": 17,
      "inboundLanes": 10,
      "outboundLanes": 5
    },
    "updatedAt": "2025-12-04T03:54:13.547Z"
  },
  {
    "id": "F0242",
    "name": "Albany CrossDock 3",
    "brand": "Deer Park",
    "facilityType": "CrossDock",
    "status": "Flow",
    "address": "1151 Industrial Blvd",
    "city": "Albany",
    "state": "NY",
    "lat": 42.56883590420022,
    "lon": -73.88986464046795,
    "counts": {
      "trucks": 49,
      "trailers": 11,
      "guardShacks": 2,
      "gates": 8,
      "trailerYards": 2,
      "dropDocks": 17,
      "inboundLanes": 2,
      "outboundLanes": 6
    },
    "updatedAt": "2025-12-03T03:54:13.547Z"
  },
  {
    "id": "F0243",
    "name": "Jacksonville Terminal 3",
    "brand": "Pure Life",
    "facilityType": "Terminal",
    "status": "Flow",
    "address": "4260 Industrial Blvd",
    "city": "Jacksonville",
    "state": "FL",
    "lat": 30.53005587443721,
    "lon": -81.7275656507388,
    "counts": {
      "trucks": 21,
      "trailers": 101,
      "guardShacks": 3,
      "gates": 8,
      "trailerYards": 4,
      "dropDocks": 4,
      "inboundLanes": 7,
      "outboundLanes": 2
    },
    "updatedAt": "2025-12-15T03:54:13.547Z"
  },
  {
    "id": "F0244",
    "name": "Birmingham Yard 3",
    "brand": "Ice Mountain",
    "facilityType": "Yard",
    "status": "Chaos",
    "address": "4439 Industrial Blvd",
    "city": "Birmingham",
    "state": "AL",
    "lat": 33.530406495021985,
    "lon": -86.71536640105818,
    "counts": {
      "trucks": 46,
      "trailers": 10,
      "guardShacks": 2,
      "gates": 4,
      "trailerYards": 5,
      "dropDocks": 18,
      "inboundLanes": 6,
      "outboundLanes": 11
    },
    "notes": "System integration pending",
    "updatedAt": "2025-12-06T03:54:13.547Z"
  },
  {
    "id": "F0245",
    "name": "Grand Rapids Plant 3",
    "brand": "Ice Mountain",
    "facilityType": "Plant",
    "status": "Activating",
    "address": "3454 Industrial Blvd",
    "city": "Grand Rapids",
    "state": "MI",
    "lat": 43.087999998487156,
    "lon": -85.47769452734987,
    "counts": {
      "trucks": 96,
      "trailers": 120,
      "guardShacks": 2,
      "gates": 5,
      "trailerYards": 5,
      "dropDocks": 12,
      "inboundLanes": 12,
      "outboundLanes": 5
    },
    "notes": "Onboarding in progress",
    "updatedAt": "2025-12-04T03:54:13.547Z"
  },
  {
    "id": "F0246",
    "name": "Oakland CrossDock 3",
    "brand": "Poland Spring",
    "facilityType": "CrossDock",
    "status": "Flow",
    "address": "2730 Industrial Blvd",
    "city": "Oakland",
    "state": "CA",
    "lat": 37.95448311979182,
    "lon": -122.07207207739097,
    "counts": {
      "trucks": 10,
      "trailers": 47,
      "guardShacks": 1,
      "gates": 5,
      "trailerYards": 1,
      "dropDocks": 15,
      "inboundLanes": 12,
      "outboundLanes": 9
    },
    "updatedAt": "2025-12-04T03:54:13.547Z"
  },
  {
    "id": "F0247",
    "name": "Dayton CrossDock 3",
    "brand": "Poland Spring",
    "facilityType": "CrossDock",
    "status": "Flow",
    "address": "8460 Industrial Blvd",
    "city": "Dayton",
    "state": "OH",
    "lat": 39.587736579224114,
    "lon": -84.03328307415438,
    "counts": {
      "trucks": 33,
      "trailers": 37,
      "guardShacks": 2,
      "gates": 2,
      "trailerYards": 5,
      "dropDocks": 16,
      "inboundLanes": 6,
      "outboundLanes": 8
    },
    "updatedAt": "2025-11-25T03:54:13.547Z"
  },
  {
    "id": "F0248",
    "name": "Nashville Terminal 3",
    "brand": "Ice Mountain",
    "facilityType": "Terminal",
    "status": "Flow",
    "address": "9609 Industrial Blvd",
    "city": "Nashville",
    "state": "TN",
    "lat": 36.3416815809575,
    "lon": -86.89948708807853,
    "counts": {
      "trucks": 23,
      "trailers": 126,
      "guardShacks": 3,
      "gates": 2,
      "trailerYards": 5,
      "dropDocks": 9,
      "inboundLanes": 9,
      "outboundLanes": 9
    },
    "updatedAt": "2025-12-08T03:54:13.547Z"
  },
  {
    "id": "F0249",
    "name": "Peoria Terminal 3",
    "brand": "Crystal Springs",
    "facilityType": "Terminal",
    "status": "Flow",
    "address": "4824 Industrial Blvd",
    "city": "Peoria",
    "state": "IL",
    "lat": 40.87345479035315,
    "lon": -89.69090070541034,
    "counts": {
      "trucks": 40,
      "trailers": 14,
      "guardShacks": 2,
      "gates": 4,
      "trailerYards": 4,
      "dropDocks": 11,
      "inboundLanes": 3,
      "outboundLanes": 2
    },
    "updatedAt": "2025-12-09T03:54:13.547Z"
  },
  {
    "id": "F0250",
    "name": "Indianapolis Yard 3",
    "brand": "Primo",
    "facilityType": "Yard",
    "status": "Flow",
    "address": "6439 Industrial Blvd",
    "city": "Indianapolis",
    "state": "IN",
    "lat": 39.5529886713867,
    "lon": -86.1487421465762,
    "counts": {
      "trucks": 12,
      "trailers": 55,
      "guardShacks": 3,
      "gates": 3,
      "trailerYards": 1,
      "dropDocks": 8,
      "inboundLanes": 10,
      "outboundLanes": 6
    },
    "updatedAt": "2025-12-13T03:54:13.547Z"
  },
  {
    "id": "F0251",
    "name": "El Paso DC 3",
    "brand": "Crystal Springs",
    "facilityType": "DC",
    "status": "Flow",
    "address": "4986 Industrial Blvd",
    "city": "El Paso",
    "state": "TX",
    "lat": 31.917075798037818,
    "lon": -106.45338340940303,
    "counts": {
      "trucks": 72,
      "trailers": 143,
      "guardShacks": 1,
      "gates": 4,
      "trailerYards": 4,
      "dropDocks": 15,
      "inboundLanes": 7,
      "outboundLanes": 2
    },
    "updatedAt": "2025-12-02T03:54:13.547Z"
  },
  {
    "id": "F0252",
    "name": "Greenville Yard 3",
    "brand": "Zephyrhills",
    "facilityType": "Yard",
    "status": "Activating",
    "address": "1514 Industrial Blvd",
    "city": "Greenville",
    "state": "SC",
    "lat": 34.70551169111224,
    "lon": -82.61180859481169,
    "counts": {
      "trucks": 27,
      "trailers": 42,
      "guardShacks": 4,
      "gates": 6,
      "trailerYards": 3,
      "dropDocks": 10,
      "inboundLanes": 2,
      "outboundLanes": 4
    },
    "notes": "Onboarding in progress",
    "updatedAt": "2025-12-10T03:54:13.547Z"
  },
  {
    "id": "F0253",
    "name": "Kansas City Terminal 3",
    "brand": "Sparkletts",
    "facilityType": "Terminal",
    "status": "Chaos",
    "address": "8879 Industrial Blvd",
    "city": "Kansas City",
    "state": "MO",
    "lat": 39.33521003652369,
    "lon": -94.51133725861399,
    "counts": {
      "trucks": 61,
      "trailers": 51,
      "guardShacks": 2,
      "gates": 6,
      "trailerYards": 2,
      "dropDocks": 19,
      "inboundLanes": 9,
      "outboundLanes": 12
    },
    "notes": "System integration pending",
    "updatedAt": "2025-12-13T03:54:13.547Z"
  },
  {
    "id": "F0254",
    "name": "Buffalo DC 3",
    "brand": "Sparkletts",
    "facilityType": "DC",
    "status": "Flow",
    "address": "2781 Industrial Blvd",
    "city": "Buffalo",
    "state": "NY",
    "lat": 42.76653922013943,
    "lon": -78.71398152381877,
    "counts": {
      "trucks": 21,
      "trailers": 33,
      "guardShacks": 4,
      "gates": 7,
      "trailerYards": 2,
      "dropDocks": 20,
      "inboundLanes": 12,
      "outboundLanes": 12
    },
    "updatedAt": "2025-11-24T03:54:13.547Z"
  },
  {
    "id": "F0255",
    "name": "Spokane Plant 3",
    "brand": "Poland Spring",
    "facilityType": "Plant",
    "status": "Flow",
    "address": "5054 Industrial Blvd",
    "city": "Spokane",
    "state": "WA",
    "lat": 47.5149506424594,
    "lon": -117.254520225979,
    "counts": {
      "trucks": 58,
      "trailers": 184,
      "guardShacks": 3,
      "gates": 3,
      "trailerYards": 3,
      "dropDocks": 13,
      "inboundLanes": 9,
      "outboundLanes": 7
    },
    "updatedAt": "2025-12-02T03:54:13.547Z"
  },
  {
    "id": "F0256",
    "name": "St. Louis Yard 3",
    "brand": "Pure Life",
    "facilityType": "Yard",
    "status": "Flow",
    "address": "6837 Industrial Blvd",
    "city": "St. Louis",
    "state": "MO",
    "lat": 38.500858326035136,
    "lon": -90.31686016379584,
    "counts": {
      "trucks": 21,
      "trailers": 89,
      "guardShacks": 1,
      "gates": 3,
      "trailerYards": 1,
      "dropDocks": 13,
      "inboundLanes": 3,
      "outboundLanes": 6
    },
    "updatedAt": "2025-12-02T03:54:13.547Z"
  },
  {
    "id": "F0257",
    "name": "Cleveland CrossDock 3",
    "brand": "Crystal Springs",
    "facilityType": "CrossDock",
    "status": "Chaos",
    "address": "4838 Industrial Blvd",
    "city": "Cleveland",
    "state": "OH",
    "lat": 41.662417729546426,
    "lon": -81.48630933196333,
    "counts": {
      "trucks": 49,
      "trailers": 24,
      "guardShacks": 4,
      "gates": 7,
      "trailerYards": 1,
      "dropDocks": 19,
      "inboundLanes": 2,
      "outboundLanes": 3
    },
    "notes": "System integration pending",
    "updatedAt": "2025-12-12T03:54:13.547Z"
  },
  {
    "id": "F0258",
    "name": "Austin DC 3",
    "brand": "Ice Mountain",
    "facilityType": "DC",
    "status": "Flow",
    "address": "8576 Industrial Blvd",
    "city": "Austin",
    "state": "TX",
    "lat": 30.16929993635335,
    "lon": -97.7114341432808,
    "counts": {
      "trucks": 27,
      "trailers": 110,
      "guardShacks": 3,
      "gates": 5,
      "trailerYards": 3,
      "dropDocks": 16,
      "inboundLanes": 10,
      "outboundLanes": 5
    },
    "updatedAt": "2025-11-20T03:54:13.547Z"
  },
  {
    "id": "F0259",
    "name": "Portland Terminal 3",
    "brand": "Ice Mountain",
    "facilityType": "Terminal",
    "status": "Activating",
    "address": "7867 Industrial Blvd",
    "city": "Portland",
    "state": "OR",
    "lat": 45.62618594492736,
    "lon": -122.43365223640228,
    "counts": {
      "trucks": 30,
      "trailers": 96,
      "guardShacks": 2,
      "gates": 3,
      "trailerYards": 1,
      "dropDocks": 19,
      "inboundLanes": 8,
      "outboundLanes": 7
    },
    "notes": "Onboarding in progress",
    "updatedAt": "2025-11-27T03:54:13.547Z"
  },
  {
    "id": "F0260",
    "name": "Sioux Falls Plant 3",
    "brand": "Ice Mountain",
    "facilityType": "Plant",
    "status": "Activating",
    "address": "6117 Industrial Blvd",
    "city": "Sioux Falls",
    "state": "SD",
    "lat": 43.3847934376152,
    "lon": -96.75929195010215,
    "counts": {
      "trucks": 44,
      "trailers": 182,
      "guardShacks": 4,
      "gates": 3,
      "trailerYards": 1,
      "dropDocks": 16,
      "inboundLanes": 12,
      "outboundLanes": 3
    },
    "notes": "Onboarding in progress",
    "updatedAt": "2025-11-25T03:54:13.547Z"
  }
]